---
header: 
  seq: 0
  stamp: 
    secs: 1653294918
    nsecs: 498168000
  frame_id: "map"
pose: 
  pose: 
    position: 
      x: -0.00740287403238
      y: 0.0356269103399
      z: 0.0
    orientation: 
      x: 0.0
      y: 0.0
      z: 0.00717587724755
      w: 0.999974253061
  covariance: [0.1995029079122281, 0.004387542498132226, 0.0, 0.0, 0.0, 0.0, 0.004387542498132228, 0.21563333763931627, 0.0, 0.0, 0.0, 0.0, 0.0, 0.0, 0.0, 0.0, 0.0, 0.0, 0.0, 0.0, 0.0, 0.0, 0.0, 0.0, 0.0, 0.0, 0.0, 0.0, 0.0, 0.0, 0.0, 0.0, 0.0, 0.0, 0.0, 0.05239049554350218]
---
header: 
  seq: 1
  stamp: 
    secs: 1653294922
    nsecs: 583712000
  frame_id: "map"
pose: 
  pose: 
    position: 
      x: 0.465588522874
      y: 0.0501653747142
      z: 0.0
    orientation: 
      x: 0.0
      y: 0.0
      z: 0.00379953320987
      w: 0.999992781748
  covariance: [0.16276931897501268, 0.008213494566396473, 0.0, 0.0, 0.0, 0.0, 0.008213494566396466, 0.20967393229365672, 0.0, 0.0, 0.0, 0.0, 0.0, 0.0, 0.0, 0.0, 0.0, 0.0, 0.0, 0.0, 0.0, 0.0, 0.0, 0.0, 0.0, 0.0, 0.0, 0.0, 0.0, 0.0, 0.0, 0.0, 0.0, 0.0, 0.0, 0.04516402923015021]
---
header: 
  seq: 2
  stamp: 
    secs: 1653294923
    nsecs: 998374000
  frame_id: "map"
pose: 
  pose: 
    position: 
      x: 0.811218453884
      y: 0.0584840564612
      z: 0.0
    orientation: 
      x: 0.0
      y: 0.0
      z: 0.00636554040706
      w: 0.999979739742
  covariance: [0.13423505228266186, 0.015928128876052883, 0.0, 0.0, 0.0, 0.0, 0.015928128876052883, 0.2001900735475957, 0.0, 0.0, 0.0, 0.0, 0.0, 0.0, 0.0, 0.0, 0.0, 0.0, 0.0, 0.0, 0.0, 0.0, 0.0, 0.0, 0.0, 0.0, 0.0, 0.0, 0.0, 0.0, 0.0, 0.0, 0.0, 0.0, 0.0, 0.03709544900751261]
---
header: 
  seq: 3
  stamp: 
    secs: 1653294926
    nsecs:  58656000
  frame_id: "map"
pose: 
  pose: 
    position: 
      x: 1.39702946706
      y: 0.214996545275
      z: 0.0
    orientation: 
      x: 0.0
      y: 0.0
      z: 0.23175416228
      w: 0.972774387135
  covariance: [0.12067288270917431, 0.014677936640191624, 0.0, 0.0, 0.0, 0.0, 0.014677936640191624, 0.22401723655561945, 0.0, 0.0, 0.0, 0.0, 0.0, 0.0, 0.0, 0.0, 0.0, 0.0, 0.0, 0.0, 0.0, 0.0, 0.0, 0.0, 0.0, 0.0, 0.0, 0.0, 0.0, 0.0, 0.0, 0.0, 0.0, 0.0, 0.0, 0.047362077848482446]
---
header: 
  seq: 4
  stamp: 
    secs: 1653294927
    nsecs: 963594000
  frame_id: "map"
pose: 
  pose: 
    position: 
      x: 1.98887831156
      y: 0.536954502274
      z: 0.0
    orientation: 
      x: 0.0
      y: 0.0
      z: 0.243146896565
      w: 0.969989477619
  covariance: [0.10111153824658858, 0.008474900258876206, 0.0, 0.0, 0.0, 0.0, 0.008474900258876206, 0.2431379332911976, 0.0, 0.0, 0.0, 0.0, 0.0, 0.0, 0.0, 0.0, 0.0, 0.0, 0.0, 0.0, 0.0, 0.0, 0.0, 0.0, 0.0, 0.0, 0.0, 0.0, 0.0, 0.0, 0.0, 0.0, 0.0, 0.0, 0.0, 0.05185580637044243]
---
header: 
  seq: 5
  stamp: 
    secs: 1653294929
    nsecs:  88720000
  frame_id: "map"
pose: 
  pose: 
    position: 
      x: 2.36841643695
      y: 0.762661014898
      z: 0.0
    orientation: 
      x: 0.0
      y: 0.0
      z: 0.244616790091
      w: 0.969619835815
  covariance: [0.08312354111916953, -0.008808288053858249, 0.0, 0.0, 0.0, 0.0, -0.008808288053858249, 0.22752556320721884, 0.0, 0.0, 0.0, 0.0, 0.0, 0.0, 0.0, 0.0, 0.0, 0.0, 0.0, 0.0, 0.0, 0.0, 0.0, 0.0, 0.0, 0.0, 0.0, 0.0, 0.0, 0.0, 0.0, 0.0, 0.0, 0.0, 0.0, 0.0456989717986465]
---
header: 
  seq: 6
  stamp: 
    secs: 1653294930
    nsecs: 237415000
  frame_id: "map"
pose: 
  pose: 
    position: 
      x: 2.77493325888
      y: 0.922623142103
      z: 0.0
    orientation: 
      x: 0.0
      y: 0.0
      z: 0.234053140404
      w: 0.972223805236
  covariance: [0.06712946898638972, -0.019902852812182736, 0.0, 0.0, 0.0, 0.0, -0.019902852812182736, 0.23756329680712196, 0.0, 0.0, 0.0, 0.0, 0.0, 0.0, 0.0, 0.0, 0.0, 0.0, 0.0, 0.0, 0.0, 0.0, 0.0, 0.0, 0.0, 0.0, 0.0, 0.0, 0.0, 0.0, 0.0, 0.0, 0.0, 0.0, 0.0, 0.04190813521674835]
---
header: 
  seq: 7
  stamp: 
    secs: 1653294932
    nsecs:   7043000
  frame_id: "map"
pose: 
  pose: 
    position: 
      x: 3.36828319769
      y: 1.17419275226
      z: 0.0
    orientation: 
      x: 0.0
      y: 0.0
      z: 0.0603053694498
      w: 0.998179974962
  covariance: [0.07549505302866422, -0.028646078213384385, 0.0, 0.0, 0.0, 0.0, -0.028646078213384385, 0.2813638157268732, 0.0, 0.0, 0.0, 0.0, 0.0, 0.0, 0.0, 0.0, 0.0, 0.0, 0.0, 0.0, 0.0, 0.0, 0.0, 0.0, 0.0, 0.0, 0.0, 0.0, 0.0, 0.0, 0.0, 0.0, 0.0, 0.0, 0.0, 0.05844241437874361]
---
header: 
  seq: 8
  stamp: 
    secs: 1653294933
    nsecs:  64985000
  frame_id: "map"
pose: 
  pose: 
    position: 
      x: 3.76855504877
      y: 1.18624344924
      z: 0.0
    orientation: 
      x: 0.0
      y: 0.0
      z: -0.199117262188
      w: 0.979975671075
  covariance: [0.07244687174686959, -0.026642043972342933, 0.0, 0.0, 0.0, 0.0, -0.026642043972342933, 0.30379632036645754, 0.0, 0.0, 0.0, 0.0, 0.0, 0.0, 0.0, 0.0, 0.0, 0.0, 0.0, 0.0, 0.0, 0.0, 0.0, 0.0, 0.0, 0.0, 0.0, 0.0, 0.0, 0.0, 0.0, 0.0, 0.0, 0.0, 0.0, 0.05251968309339673]
---
header: 
  seq: 9
  stamp: 
    secs: 1653294933
    nsecs: 557067000
  frame_id: "map"
pose: 
  pose: 
    position: 
      x: 3.9373781895
      y: 1.11765306896
      z: 0.0
    orientation: 
      x: 0.0
      y: 0.0
      z: -0.40202645901
      w: 0.915628050169
  covariance: [0.06236925984322461, -0.015924992830706586, 0.0, 0.0, 0.0, 0.0, -0.015924992830706586, 0.2716483050604228, 0.0, 0.0, 0.0, 0.0, 0.0, 0.0, 0.0, 0.0, 0.0, 0.0, 0.0, 0.0, 0.0, 0.0, 0.0, 0.0, 0.0, 0.0, 0.0, 0.0, 0.0, 0.0, 0.0, 0.0, 0.0, 0.0, 0.0, 0.04361672448149604]
---
header: 
  seq: 10
  stamp: 
    secs: 1653294933
    nsecs: 909164000
  frame_id: "map"
pose: 
  pose: 
    position: 
      x: 4.04355796104
      y: 0.98247416596
      z: 0.0
    orientation: 
      x: 0.0
      y: 0.0
      z: -0.573570510378
      w: 0.819156193668
  covariance: [0.055286102831001216, -0.0016053965770290723, 0.0, 0.0, 0.0, 0.0, -0.0016053965770299605, 0.25651661403183446, 0.0, 0.0, 0.0, 0.0, 0.0, 0.0, 0.0, 0.0, 0.0, 0.0, 0.0, 0.0, 0.0, 0.0, 0.0, 0.0, 0.0, 0.0, 0.0, 0.0, 0.0, 0.0, 0.0, 0.0, 0.0, 0.0, 0.0, 0.04065458057312259]
---
header: 
  seq: 11
  stamp: 
    secs: 1653294934
    nsecs: 402954000
  frame_id: "map"
pose: 
  pose: 
    position: 
      x: 4.09209464984
      y: 0.826844427314
      z: 0.0
    orientation: 
      x: 0.0
      y: 0.0
      z: -0.672671958167
      w: 0.73994083324
  covariance: [0.04813959734721962, 0.008498888375566338, 0.0, 0.0, 0.0, 0.0, 0.008498888375566782, 0.22064849476284032, 0.0, 0.0, 0.0, 0.0, 0.0, 0.0, 0.0, 0.0, 0.0, 0.0, 0.0, 0.0, 0.0, 0.0, 0.0, 0.0, 0.0, 0.0, 0.0, 0.0, 0.0, 0.0, 0.0, 0.0, 0.0, 0.0, 0.0, 0.03132943526562645]
---
header: 
  seq: 12
  stamp: 
    secs: 1653294939
    nsecs: 134140000
  frame_id: "map"
pose: 
  pose: 
    position: 
      x: 3.78299517697
      y: -0.595669662943
      z: 0.0
    orientation: 
      x: 0.0
      y: 0.0
      z: -0.977889723581
      w: 0.209121229232
  covariance: [1.226453496926693, -0.09305557581256974, 0.0, 0.0, 0.0, 0.0, -0.09305557581257018, 0.9691078497436214, 0.0, 0.0, 0.0, 0.0, 0.0, 0.0, 0.0, 0.0, 0.0, 0.0, 0.0, 0.0, 0.0, 0.0, 0.0, 0.0, 0.0, 0.0, 0.0, 0.0, 0.0, 0.0, 0.0, 0.0, 0.0, 0.0, 0.0, 1.1894575233505607]
---
header: 
  seq: 13
  stamp: 
    secs: 1653294939
    nsecs: 490440000
  frame_id: "map"
pose: 
  pose: 
    position: 
      x: 3.67031103663
      y: -0.624765852076
      z: 0.0
    orientation: 
      x: 0.0
      y: 0.0
      z: -0.993862007646
      w: 0.11062689437
  covariance: [1.1710771828712883, -0.06210575021485232, 0.0, 0.0, 0.0, 0.0, -0.06210575021485232, 0.8884613626943023, 0.0, 0.0, 0.0, 0.0, 0.0, 0.0, 0.0, 0.0, 0.0, 0.0, 0.0, 0.0, 0.0, 0.0, 0.0, 0.0, 0.0, 0.0, 0.0, 0.0, 0.0, 0.0, 0.0, 0.0, 0.0, 0.0, 0.0, 1.0544490292591353]
---
header: 
  seq: 14
  stamp: 
    secs: 1653294940
    nsecs: 264442000
  frame_id: "map"
pose: 
  pose: 
    position: 
      x: 3.3709443331
      y: -0.557156518526
      z: 0.0
    orientation: 
      x: 0.0
      y: 0.0
      z: 0.984969271966
      w: 0.172729653746
  covariance: [1.014637732882898, -0.04843291070813227, 0.0, 0.0, 0.0, 0.0, -0.04843291070813205, 0.8709384386436358, 0.0, 0.0, 0.0, 0.0, 0.0, 0.0, 0.0, 0.0, 0.0, 0.0, 0.0, 0.0, 0.0, 0.0, 0.0, 0.0, 0.0, 0.0, 0.0, 0.0, 0.0, 0.0, 0.0, 0.0, 0.0, 0.0, 0.0, 0.9548358151853484]
---
header: 
  seq: 15
  stamp: 
    secs: 1653294941
    nsecs: 100267000
  frame_id: "map"
pose: 
  pose: 
    position: 
      x: 3.09385999223
      y: -0.382788296555
      z: 0.0
    orientation: 
      x: 0.0
      y: 0.0
      z: 0.954998867287
      w: 0.296609446042
  covariance: [0.8350204842298101, -0.03449050241672347, 0.0, 0.0, 0.0, 0.0, -0.03449050241672347, 0.7931585436697999, 0.0, 0.0, 0.0, 0.0, 0.0, 0.0, 0.0, 0.0, 0.0, 0.0, 0.0, 0.0, 0.0, 0.0, 0.0, 0.0, 0.0, 0.0, 0.0, 0.0, 0.0, 0.0, 0.0, 0.0, 0.0, 0.0, 0.0, 0.8149017715196916]
---
header: 
  seq: 16
  stamp: 
    secs: 1653294941
    nsecs: 890359000
  frame_id: "map"
pose: 
  pose: 
    position: 
      x: 2.76722646765
      y: -0.228921017192
      z: 0.0
    orientation: 
      x: 0.0
      y: 0.0
      z: 0.95014972362
      w: 0.311794006845
  covariance: [0.7592461596731761, -0.011555498737821357, 0.0, 0.0, 0.0, 0.0, -0.011555498737821246, 0.8322499715620677, 0.0, 0.0, 0.0, 0.0, 0.0, 0.0, 0.0, 0.0, 0.0, 0.0, 0.0, 0.0, 0.0, 0.0, 0.0, 0.0, 0.0, 0.0, 0.0, 0.0, 0.0, 0.0, 0.0, 0.0, 0.0, 0.0, 0.0, 0.7573097050457397]
---
header: 
  seq: 17
  stamp: 
    secs: 1653294942
    nsecs: 885954000
  frame_id: "map"
pose: 
  pose: 
    position: 
      x: 2.50460012846
      y: -0.114059331437
      z: 0.0
    orientation: 
      x: 0.0
      y: 0.0
      z: 0.982037254115
      w: 0.188687126031
  covariance: [0.722188692518972, 0.04466179490692401, 0.0, 0.0, 0.0, 0.0, 0.0446617949069239, 0.8831704957049502, 0.0, 0.0, 0.0, 0.0, 0.0, 0.0, 0.0, 0.0, 0.0, 0.0, 0.0, 0.0, 0.0, 0.0, 0.0, 0.0, 0.0, 0.0, 0.0, 0.0, 0.0, 0.0, 0.0, 0.0, 0.0, 0.0, 0.0, 0.6882770446253293]
---
header: 
  seq: 18
  stamp: 
    secs: 1653294944
    nsecs: 156664000
  frame_id: "map"
pose: 
  pose: 
    position: 
      x: 2.04996516265
      y: 0.042256578817
      z: 0.0
    orientation: 
      x: 0.0
      y: 0.0
      z: 0.997820520503
      w: 0.0659864293858
  covariance: [0.8883305703794209, 0.10404446401601589, 0.0, 0.0, 0.0, 0.0, 0.104044464016016, 1.1318180120631272, 0.0, 0.0, 0.0, 0.0, 0.0, 0.0, 0.0, 0.0, 0.0, 0.0, 0.0, 0.0, 0.0, 0.0, 0.0, 0.0, 0.0, 0.0, 0.0, 0.0, 0.0, 0.0, 0.0, 0.0, 0.0, 0.0, 0.0, 0.6158256552535573]
---
header: 
  seq: 19
  stamp: 
    secs: 1653294945
    nsecs: 643589000
  frame_id: "map"
pose: 
  pose: 
    position: 
      x: 1.63917707698
      y: 0.112760876307
      z: 0.0
    orientation: 
      x: 0.0
      y: 0.0
      z: 0.996534125008
      w: 0.0831849607505
  covariance: [1.221122463502096, 0.30604010286518335, 0.0, 0.0, 0.0, 0.0, 0.30604010286518335, 1.610405318227904, 0.0, 0.0, 0.0, 0.0, 0.0, 0.0, 0.0, 0.0, 0.0, 0.0, 0.0, 0.0, 0.0, 0.0, 0.0, 0.0, 0.0, 0.0, 0.0, 0.0, 0.0, 0.0, 0.0, 0.0, 0.0, 0.0, 0.0, 0.6143945783413638]
---
header: 
  seq: 20
  stamp: 
    secs: 1653294947
    nsecs: 279660000
  frame_id: "map"
pose: 
  pose: 
    position: 
      x: 0.913649206291
      y: 0.208093892497
      z: 0.0
    orientation: 
      x: 0.0
      y: 0.0
      z: 0.999322476401
      w: 0.0368047301261
  covariance: [1.739150419284266, 0.6797636158445981, 0.0, 0.0, 0.0, 0.0, 0.6797636158445981, 2.577238760845348, 0.0, 0.0, 0.0, 0.0, 0.0, 0.0, 0.0, 0.0, 0.0, 0.0, 0.0, 0.0, 0.0, 0.0, 0.0, 0.0, 0.0, 0.0, 0.0, 0.0, 0.0, 0.0, 0.0, 0.0, 0.0, 0.0, 0.0, 0.5932518451495091]
---
header: 
  seq: 21
  stamp: 
    secs: 1653294947
    nsecs: 841570000
  frame_id: "map"
pose: 
  pose: 
    position: 
      x: 0.660031530154
      y: 0.201058249627
      z: 0.0
    orientation: 
      x: 0.0
      y: 0.0
      z: -0.997869376926
      w: 0.065243440998
  covariance: [1.8532495003330802, 0.7816491920084889, 0.0, 0.0, 0.0, 0.0, 0.7816491920084889, 2.8223081894898687, 0.0, 0.0, 0.0, 0.0, 0.0, 0.0, 0.0, 0.0, 0.0, 0.0, 0.0, 0.0, 0.0, 0.0, 0.0, 0.0, 0.0, 0.0, 0.0, 0.0, 0.0, 0.0, 0.0, 0.0, 0.0, 0.0, 0.0, 0.5387909230613015]
---
header: 
  seq: 22
  stamp: 
    secs: 1653294948
    nsecs: 705593000
  frame_id: "map"
pose: 
  pose: 
    position: 
      x: 0.240335133721
      y: 0.0371346066451
      z: 0.0
    orientation: 
      x: 0.0
      y: 0.0
      z: -0.985027369466
      w: 0.172398031899
  covariance: [1.987225599919432, 0.8660669478989266, 0.0, 0.0, 0.0, 0.0, 0.8660669478989265, 3.298504407667114, 0.0, 0.0, 0.0, 0.0, 0.0, 0.0, 0.0, 0.0, 0.0, 0.0, 0.0, 0.0, 0.0, 0.0, 0.0, 0.0, 0.0, 0.0, 0.0, 0.0, 0.0, 0.0, 0.0, 0.0, 0.0, 0.0, 0.0, 0.488354803767111]
---
header: 
  seq: 23
  stamp: 
    secs: 1653294949
    nsecs: 328132000
  frame_id: "map"
pose: 
  pose: 
    position: 
      x: -0.163524903591
      y: -0.10545058616
      z: 0.0
    orientation: 
      x: 0.0
      y: 0.0
      z: -0.967075178506
      w: 0.254490862541
  covariance: [1.8816788049842972, 0.9331871465631683, 0.0, 0.0, 0.0, 0.0, 0.9331871465631683, 3.560626763694006, 0.0, 0.0, 0.0, 0.0, 0.0, 0.0, 0.0, 0.0, 0.0, 0.0, 0.0, 0.0, 0.0, 0.0, 0.0, 0.0, 0.0, 0.0, 0.0, 0.0, 0.0, 0.0, 0.0, 0.0, 0.0, 0.0, 0.0, 0.42274606358484]
---
header: 
  seq: 24
  stamp: 
    secs: 1653294950
    nsecs: 411229000
  frame_id: "map"
pose: 
  pose: 
    position: 
      x: -0.622904256806
      y: -0.370942692181
      z: 0.0
    orientation: 
      x: 0.0
      y: 0.0
      z: -0.920438146349
      w: 0.390888243295
  covariance: [1.8266800443280398, 0.8900947338290236, 0.0, 0.0, 0.0, 0.0, 0.8900947338290236, 3.8364444563119733, 0.0, 0.0, 0.0, 0.0, 0.0, 0.0, 0.0, 0.0, 0.0, 0.0, 0.0, 0.0, 0.0, 0.0, 0.0, 0.0, 0.0, 0.0, 0.0, 0.0, 0.0, 0.0, 0.0, 0.0, 0.0, 0.0, 0.0, 0.3460469918669115]
---
header: 
  seq: 25
  stamp: 
    secs: 1653294951
    nsecs: 743657000
  frame_id: "map"
pose: 
  pose: 
    position: 
      x: -1.14978907668
      y: -0.921903116451
      z: 0.0
    orientation: 
      x: 0.0
      y: 0.0
      z: -0.932337296163
      w: 0.361589776104
  covariance: [1.7866930218356634, 0.7405034212040158, 0.0, 0.0, 0.0, 0.0, 0.7405034212040158, 4.3253071824109215, 0.0, 0.0, 0.0, 0.0, 0.0, 0.0, 0.0, 0.0, 0.0, 0.0, 0.0, 0.0, 0.0, 0.0, 0.0, 0.0, 0.0, 0.0, 0.0, 0.0, 0.0, 0.0, 0.0, 0.0, 0.0, 0.0, 0.0, 0.3044670014230568]
---
header: 
  seq: 26
  stamp: 
    secs: 1653294952
    nsecs: 826487000
  frame_id: "map"
pose: 
  pose: 
    position: 
      x: -1.72966836264
      y: -1.33460728651
      z: 0.0
    orientation: 
      x: 0.0
      y: 0.0
      z: -0.948464905037
      w: 0.316882192484
  covariance: [1.700505371613871, 0.9066347347872803, 0.0, 0.0, 0.0, 0.0, 0.9066347347872803, 4.489400664471147, 0.0, 0.0, 0.0, 0.0, 0.0, 0.0, 0.0, 0.0, 0.0, 0.0, 0.0, 0.0, 0.0, 0.0, 0.0, 0.0, 0.0, 0.0, 0.0, 0.0, 0.0, 0.0, 0.0, 0.0, 0.0, 0.0, 0.0, 0.26279938897326777]
---
header: 
  seq: 27
  stamp: 
    secs: 1653294954
    nsecs:  95572000
  frame_id: "map"
pose: 
  pose: 
    position: 
      x: -2.33895271622
      y: -1.78864077764
      z: 0.0
    orientation: 
      x: 0.0
      y: 0.0
      z: -0.946132791521
      w: 0.323778845522
  covariance: [1.4837508955506147, 0.8882797977561667, 0.0, 0.0, 0.0, 0.0, 0.8882797977561658, 4.213889305848115, 0.0, 0.0, 0.0, 0.0, 0.0, 0.0, 0.0, 0.0, 0.0, 0.0, 0.0, 0.0, 0.0, 0.0, 0.0, 0.0, 0.0, 0.0, 0.0, 0.0, 0.0, 0.0, 0.0, 0.0, 0.0, 0.0, 0.0, 0.20553484796288868]
---
header: 
  seq: 28
  stamp: 
    secs: 1653294957
    nsecs: 708692000
  frame_id: "map"
pose: 
  pose: 
    position: 
      x: -2.36787473577
      y: -2.02867708923
      z: 0.0
    orientation: 
      x: 0.0
      y: 0.0
      z: -0.937174253657
      w: 0.348861603336
  covariance: [1.028061834497798, 0.799050172015614, 0.0, 0.0, 0.0, 0.0, 0.799050172015614, 2.78957293182725, 0.0, 0.0, 0.0, 0.0, 0.0, 0.0, 0.0, 0.0, 0.0, 0.0, 0.0, 0.0, 0.0, 0.0, 0.0, 0.0, 0.0, 0.0, 0.0, 0.0, 0.0, 0.0, 0.0, 0.0, 0.0, 0.0, 0.0, 0.1502549362401262]
---
header: 
  seq: 29
  stamp: 
    secs: 1653294959
    nsecs: 555165000
  frame_id: "map"
pose: 
  pose: 
    position: 
      x: -2.02321185027
      y: -1.8848148505
      z: 0.0
    orientation: 
      x: 0.0
      y: 0.0
      z: -0.93086107196
      w: 0.365373322384
  covariance: [0.6886002074041393, 0.6386522313128502, 0.0, 0.0, 0.0, 0.0, 0.6386522313128502, 1.873204087098364, 0.0, 0.0, 0.0, 0.0, 0.0, 0.0, 0.0, 0.0, 0.0, 0.0, 0.0, 0.0, 0.0, 0.0, 0.0, 0.0, 0.0, 0.0, 0.0, 0.0, 0.0, 0.0, 0.0, 0.0, 0.0, 0.0, 0.0, 0.11738726350869753]
---
header: 
  seq: 30
  stamp: 
    secs: 1653294961
    nsecs: 186515000
  frame_id: "map"
pose: 
  pose: 
    position: 
      x: -1.75124316452
      y: -1.58855653849
      z: 0.0
    orientation: 
      x: 0.0
      y: 0.0
      z: -0.93323168747
      w: 0.359275127865
  covariance: [0.5266134819973076, 0.43458622792509916, 0.0, 0.0, 0.0, 0.0, 0.4345862279250996, 1.0912841168250436, 0.0, 0.0, 0.0, 0.0, 0.0, 0.0, 0.0, 0.0, 0.0, 0.0, 0.0, 0.0, 0.0, 0.0, 0.0, 0.0, 0.0, 0.0, 0.0, 0.0, 0.0, 0.0, 0.0, 0.0, 0.0, 0.0, 0.0, 0.08831945200360856]
---
header: 
  seq: 31
  stamp: 
    secs: 1653294962
    nsecs: 177282000
  frame_id: "map"
pose: 
  pose: 
    position: 
      x: -1.46537793253
      y: -1.31407803654
      z: 0.0
    orientation: 
      x: 0.0
      y: 0.0
      z: -0.928450195201
      w: 0.371456908713
  covariance: [0.4132689282493498, 0.2764234402738981, 0.0, 0.0, 0.0, 0.0, 0.2764234402738983, 0.6359698799137807, 0.0, 0.0, 0.0, 0.0, 0.0, 0.0, 0.0, 0.0, 0.0, 0.0, 0.0, 0.0, 0.0, 0.0, 0.0, 0.0, 0.0, 0.0, 0.0, 0.0, 0.0, 0.0, 0.0, 0.0, 0.0, 0.0, 0.0, 0.06665050601027707]
---
header: 
  seq: 32
  stamp: 
    secs: 1653294963
    nsecs: 748473000
  frame_id: "map"
pose: 
  pose: 
    position: 
      x: -1.23203981371
      y: -1.08395527177
      z: 0.0
    orientation: 
      x: 0.0
      y: 0.0
      z: -0.929682482231
      w: 0.368361890309
  covariance: [0.2652529955479701, 0.13267285870014023, 0.0, 0.0, 0.0, 0.0, 0.13267285870014023, 0.34267277994694756, 0.0, 0.0, 0.0, 0.0, 0.0, 0.0, 0.0, 0.0, 0.0, 0.0, 0.0, 0.0, 0.0, 0.0, 0.0, 0.0, 0.0, 0.0, 0.0, 0.0, 0.0, 0.0, 0.0, 0.0, 0.0, 0.0, 0.0, 0.045810784448338894]
---
header: 
  seq: 33
  stamp: 
    secs: 1653294965
    nsecs: 304802000
  frame_id: "map"
pose: 
  pose: 
    position: 
      x: -0.959628274558
      y: -0.875972013587
      z: 0.0
    orientation: 
      x: 0.0
      y: 0.0
      z: -0.914475235064
      w: 0.404641871851
  covariance: [0.2028890868553488, 0.09509276376713482, 0.0, 0.0, 0.0, 0.0, 0.09509276376713482, 0.23870344951885747, 0.0, 0.0, 0.0, 0.0, 0.0, 0.0, 0.0, 0.0, 0.0, 0.0, 0.0, 0.0, 0.0, 0.0, 0.0, 0.0, 0.0, 0.0, 0.0, 0.0, 0.0, 0.0, 0.0, 0.0, 0.0, 0.0, 0.0, 0.039289252037991544]
---
header: 
  seq: 34
  stamp: 
    secs: 1653294966
    nsecs: 587334000
  frame_id: "map"
pose: 
  pose: 
    position: 
      x: -0.675756118403
      y: -0.655899167304
      z: 0.0
    orientation: 
      x: 0.0
      y: 0.0
      z: -0.978547721851
      w: 0.206020280703
  covariance: [0.14424480572477733, 0.06445075915453602, 0.0, 0.0, 0.0, 0.0, 0.06445075915453602, 0.20621638359591526, 0.0, 0.0, 0.0, 0.0, 0.0, 0.0, 0.0, 0.0, 0.0, 0.0, 0.0, 0.0, 0.0, 0.0, 0.0, 0.0, 0.0, 0.0, 0.0, 0.0, 0.0, 0.0, 0.0, 0.0, 0.0, 0.0, 0.0, 0.036057744899456706]
---
header: 
  seq: 35
  stamp: 
    secs: 1653294967
    nsecs: 273466000
  frame_id: "map"
pose: 
  pose: 
    position: 
      x: -0.479484172758
      y: -0.594266246987
      z: 0.0
    orientation: 
      x: 0.0
      y: 0.0
      z: -0.997132863422
      w: 0.0756706857643
  covariance: [0.13419115438270734, 0.05412964147324362, 0.0, 0.0, 0.0, 0.0, 0.05412964147324367, 0.1994779309398862, 0.0, 0.0, 0.0, 0.0, 0.0, 0.0, 0.0, 0.0, 0.0, 0.0, 0.0, 0.0, 0.0, 0.0, 0.0, 0.0, 0.0, 0.0, 0.0, 0.0, 0.0, 0.0, 0.0, 0.0, 0.0, 0.0, 0.0, 0.03573323901162759]
---
header: 
  seq: 36
  stamp: 
    secs: 1653294968
    nsecs: 346048000
  frame_id: "map"
pose: 
  pose: 
    position: 
      x: -0.153390736996
      y: -0.610172212214
      z: 0.0
    orientation: 
      x: 0.0
      y: 0.0
      z: 0.999073998622
      w: 0.0430249378648
  covariance: [0.06131641868758259, -0.002013845985339144, 0.0, 0.0, 0.0, 0.0, -0.0020138459853391577, 0.10601706311691211, 0.0, 0.0, 0.0, 0.0, 0.0, 0.0, 0.0, 0.0, 0.0, 0.0, 0.0, 0.0, 0.0, 0.0, 0.0, 0.0, 0.0, 0.0, 0.0, 0.0, 0.0, 0.0, 0.0, 0.0, 0.0, 0.0, 0.0, 0.018536386321256856]
---
header: 
  seq: 37
  stamp: 
    secs: 1653294969
    nsecs: 475280000
  frame_id: "map"
pose: 
  pose: 
    position: 
      x: 0.196954783722
      y: -0.637820490564
      z: 0.0
    orientation: 
      x: 0.0
      y: 0.0
      z: 0.998828040749
      w: 0.0483998451901
  covariance: [0.038827722348918785, -0.010549324234170127, 0.0, 0.0, 0.0, 0.0, -0.010549324234170127, 0.09807259659747142, 0.0, 0.0, 0.0, 0.0, 0.0, 0.0, 0.0, 0.0, 0.0, 0.0, 0.0, 0.0, 0.0, 0.0, 0.0, 0.0, 0.0, 0.0, 0.0, 0.0, 0.0, 0.0, 0.0, 0.0, 0.0, 0.0, 0.0, 0.014171340248312085]
---
header: 
  seq: 38
  stamp: 
    secs: 1653294970
    nsecs: 547864000
  frame_id: "map"
pose: 
  pose: 
    position: 
      x: 0.534611283242
      y: -0.744925172551
      z: 0.0
    orientation: 
      x: 0.0
      y: 0.0
      z: 0.997991146992
      w: 0.0633535360112
  covariance: [0.031182733153467868, -0.007985535947332367, 0.0, 0.0, 0.0, 0.0, -0.007985535947332367, 0.09344849074135231, 0.0, 0.0, 0.0, 0.0, 0.0, 0.0, 0.0, 0.0, 0.0, 0.0, 0.0, 0.0, 0.0, 0.0, 0.0, 0.0, 0.0, 0.0, 0.0, 0.0, 0.0, 0.0, 0.0, 0.0, 0.0, 0.0, 0.0, 0.011968725144332313]
---
header: 
  seq: 39
  stamp: 
    secs: 1653294972
    nsecs: 377601000
  frame_id: "map"
pose: 
  pose: 
    position: 
      x: 1.08461353432
      y: -0.707056108616
      z: 0.0
    orientation: 
      x: 0.0
      y: 0.0
      z: -0.996881202068
      w: 0.0789168484122
  covariance: [0.029807754868204528, -0.003408098561841655, 0.0, 0.0, 0.0, 0.0, -0.003408098561841655, 0.09960455505940502, 0.0, 0.0, 0.0, 0.0, 0.0, 0.0, 0.0, 0.0, 0.0, 0.0, 0.0, 0.0, 0.0, 0.0, 0.0, 0.0, 0.0, 0.0, 0.0, 0.0, 0.0, 0.0, 0.0, 0.0, 0.0, 0.0, 0.0, 0.015974587479847164]
---
header: 
  seq: 40
  stamp: 
    secs: 1653294974
    nsecs:  93471000
  frame_id: "map"
pose: 
  pose: 
    position: 
      x: 1.59667085079
      y: -0.600984860342
      z: 0.0
    orientation: 
      x: 0.0
      y: 0.0
      z: -0.996505060949
      w: 0.0835324098908
  covariance: [0.03011009847792323, -0.005980746757818789, 0.0, 0.0, 0.0, 0.0, -0.005980746757819122, 0.09372199996247954, 0.0, 0.0, 0.0, 0.0, 0.0, 0.0, 0.0, 0.0, 0.0, 0.0, 0.0, 0.0, 0.0, 0.0, 0.0, 0.0, 0.0, 0.0, 0.0, 0.0, 0.0, 0.0, 0.0, 0.0, 0.0, 0.0, 0.0, 0.0175108109960409]
---
header: 
  seq: 41
  stamp: 
    secs: 1653294975
    nsecs: 362685000
  frame_id: "map"
pose: 
  pose: 
    position: 
      x: 1.94655125627
      y: -0.571738140832
      z: 0.0
    orientation: 
      x: 0.0
      y: 0.0
      z: -0.998287554042
      w: 0.0584975165707
  covariance: [0.0269290415548058, -0.0012919625354379516, 0.0, 0.0, 0.0, 0.0, -0.0012919625354379516, 0.08618162064350438, 0.0, 0.0, 0.0, 0.0, 0.0, 0.0, 0.0, 0.0, 0.0, 0.0, 0.0, 0.0, 0.0, 0.0, 0.0, 0.0, 0.0, 0.0, 0.0, 0.0, 0.0, 0.0, 0.0, 0.0, 0.0, 0.0, 0.0, 0.015103381966523393]
---
header: 
  seq: 42
  stamp: 
    secs: 1653294976
    nsecs: 366936000
  frame_id: "map"
pose: 
  pose: 
    position: 
      x: 2.23579159231
      y: -0.548485273091
      z: 0.0
    orientation: 
      x: 0.0
      y: 0.0
      z: 0.997549207474
      w: 0.0699684119365
  covariance: [0.024218051157474996, -0.0003165622926710743, 0.0, 0.0, 0.0, 0.0, -0.0003165622926712963, 0.08485065853301749, 0.0, 0.0, 0.0, 0.0, 0.0, 0.0, 0.0, 0.0, 0.0, 0.0, 0.0, 0.0, 0.0, 0.0, 0.0, 0.0, 0.0, 0.0, 0.0, 0.0, 0.0, 0.0, 0.0, 0.0, 0.0, 0.0, 0.0, 0.013523108656828821]
---
header: 
  seq: 43
  stamp: 
    secs: 1653294977
    nsecs: 355452000
  frame_id: "map"
pose: 
  pose: 
    position: 
      x: 2.49082783595
      y: -0.621770801486
      z: 0.0
    orientation: 
      x: 0.0
      y: 0.0
      z: 0.960848209899
      w: 0.277075292176
  covariance: [0.02512071049670972, 0.0022850523283661772, 0.0, 0.0, 0.0, 0.0, 0.0022850523283661772, 0.08543342751697203, 0.0, 0.0, 0.0, 0.0, 0.0, 0.0, 0.0, 0.0, 0.0, 0.0, 0.0, 0.0, 0.0, 0.0, 0.0, 0.0, 0.0, 0.0, 0.0, 0.0, 0.0, 0.0, 0.0, 0.0, 0.0, 0.0, 0.0, 0.013275357054222796]
---
header: 
  seq: 44
  stamp: 
    secs: 1653294978
    nsecs: 217440000
  frame_id: "map"
pose: 
  pose: 
    position: 
      x: 2.63320007186
      y: -0.785993136849
      z: 0.0
    orientation: 
      x: 0.0
      y: 0.0
      z: 0.875108310634
      w: 0.483927106762
  covariance: [0.025363315033868794, 0.009479149245739116, 0.0, 0.0, 0.0, 0.0, 0.009479149245739116, 0.06854562489697413, 0.0, 0.0, 0.0, 0.0, 0.0, 0.0, 0.0, 0.0, 0.0, 0.0, 0.0, 0.0, 0.0, 0.0, 0.0, 0.0, 0.0, 0.0, 0.0, 0.0, 0.0, 0.0, 0.0, 0.0, 0.0, 0.0, 0.0, 0.010873915307170079]
---
header: 
  seq: 45
  stamp: 
    secs: 1653294982
    nsecs: 309489000
  frame_id: "map"
pose: 
  pose: 
    position: 
      x: 2.385932465
      y: -0.420195465497
      z: 0.0
    orientation: 
      x: 0.0
      y: 0.0
      z: 0.873491189464
      w: 0.486839955147
  covariance: [0.022006906139789173, 0.0033028773961255586, 0.0, 0.0, 0.0, 0.0, 0.0033028773961255586, 0.05252515566555038, 0.0, 0.0, 0.0, 0.0, 0.0, 0.0, 0.0, 0.0, 0.0, 0.0, 0.0, 0.0, 0.0, 0.0, 0.0, 0.0, 0.0, 0.0, 0.0, 0.0, 0.0, 0.0, 0.0, 0.0, 0.0, 0.0, 0.0, 0.012533895683869254]
---
header: 
  seq: 46
  stamp: 
    secs: 1653294984
    nsecs: 456194000
  frame_id: "map"
pose: 
  pose: 
    position: 
      x: 2.26053446149
      y: -0.112862441817
      z: 0.0
    orientation: 
      x: 0.0
      y: 0.0
      z: 0.877810368852
      w: 0.47900830508
  covariance: [0.021542982303962788, 0.002238166277664655, 0.0, 0.0, 0.0, 0.0, 0.0022381662776645994, 0.042842764978067646, 0.0, 0.0, 0.0, 0.0, 0.0, 0.0, 0.0, 0.0, 0.0, 0.0, 0.0, 0.0, 0.0, 0.0, 0.0, 0.0, 0.0, 0.0, 0.0, 0.0, 0.0, 0.0, 0.0, 0.0, 0.0, 0.0, 0.0, 0.011856216982144918]
---
header: 
  seq: 47
  stamp: 
    secs: 1653294986
    nsecs: 285417000
  frame_id: "map"
pose: 
  pose: 
    position: 
      x: 2.041356802
      y: 0.0912100645853
      z: 0.0
    orientation: 
      x: 0.0
      y: 0.0
      z: 0.93141739371
      w: 0.363952797343
  covariance: [0.021924676060924853, 0.0010547259659297314, 0.0, 0.0, 0.0, 0.0, 0.0010547259659297314, 0.038735517278018966, 0.0, 0.0, 0.0, 0.0, 0.0, 0.0, 0.0, 0.0, 0.0, 0.0, 0.0, 0.0, 0.0, 0.0, 0.0, 0.0, 0.0, 0.0, 0.0, 0.0, 0.0, 0.0, 0.0, 0.0, 0.0, 0.0, 0.0, 0.010911504189693477]
---
header: 
  seq: 48
  stamp: 
    secs: 1653294987
    nsecs: 697389000
  frame_id: "map"
pose: 
  pose: 
    position: 
      x: 1.78080405009
      y: 0.32601535036
      z: 0.0
    orientation: 
      x: 0.0
      y: 0.0
      z: 0.933398474266
      w: 0.358841592124
  covariance: [0.023285540989427922, 0.00041934228910900373, 0.0, 0.0, 0.0, 0.0, 0.00041934228910900373, 0.03389457736089958, 0.0, 0.0, 0.0, 0.0, 0.0, 0.0, 0.0, 0.0, 0.0, 0.0, 0.0, 0.0, 0.0, 0.0, 0.0, 0.0, 0.0, 0.0, 0.0, 0.0, 0.0, 0.0, 0.0, 0.0, 0.0, 0.0, 0.0, 0.010773509277298953]
---
header: 
  seq: 49
  stamp: 
    secs: 1653294988
    nsecs: 898450000
  frame_id: "map"
pose: 
  pose: 
    position: 
      x: 1.58672333224
      y: 0.478342520633
      z: 0.0
    orientation: 
      x: 0.0
      y: 0.0
      z: 0.977861841364
      w: 0.209251569178
  covariance: [0.024835301127096976, 0.0015778914786159781, 0.0, 0.0, 0.0, 0.0, 0.0015778914786159781, 0.02823432552648153, 0.0, 0.0, 0.0, 0.0, 0.0, 0.0, 0.0, 0.0, 0.0, 0.0, 0.0, 0.0, 0.0, 0.0, 0.0, 0.0, 0.0, 0.0, 0.0, 0.0, 0.0, 0.0, 0.0, 0.0, 0.0, 0.0, 0.0, 0.00956011652430989]
---
header: 
  seq: 50
  stamp: 
    secs: 1653294989
    nsecs: 742429000
  frame_id: "map"
pose: 
  pose: 
    position: 
      x: 1.44818509347
      y: 0.536512416983
      z: 0.0
    orientation: 
      x: 0.0
      y: 0.0
      z: 0.995194761627
      w: 0.0979152002015
  covariance: [0.024403016488379503, 0.001504693479675745, 0.0, 0.0, 0.0, 0.0, 0.001504693479675745, 0.028206814970070992, 0.0, 0.0, 0.0, 0.0, 0.0, 0.0, 0.0, 0.0, 0.0, 0.0, 0.0, 0.0, 0.0, 0.0, 0.0, 0.0, 0.0, 0.0, 0.0, 0.0, 0.0, 0.0, 0.0, 0.0, 0.0, 0.0, 0.0, 0.008349075167180298]
---
