---
header: 
  seq: 0
  stamp: 
    secs: 1653294917
    nsecs: 715321000
  frame_id: "map"
pose: 
  pose: 
    position: 
      x: -0.0259030914133
      y: 0.0182914351319
      z: 0.0
    orientation: 
      x: 0.0
      y: 0.0
      z: 0.00351048287238
      w: 0.999993838236
  covariance: [0.2036553465205967, 0.006119674472364109, 0.0, 0.0, 0.0, 0.0, 0.006119674472364108, 0.23205798010022974, 0.0, 0.0, 0.0, 0.0, 0.0, 0.0, 0.0, 0.0, 0.0, 0.0, 0.0, 0.0, 0.0, 0.0, 0.0, 0.0, 0.0, 0.0, 0.0, 0.0, 0.0, 0.0, 0.0, 0.0, 0.0, 0.0, 0.0, 0.05998475610497201]
---
header: 
  seq: 1
  stamp: 
    secs: 1653294922
    nsecs: 583712000
  frame_id: "map"
pose: 
  pose: 
    position: 
      x: 0.434556741157
      y: 0.00519392966657
      z: 0.0
    orientation: 
      x: 0.0
      y: 0.0
      z: 0.0040271759987
      w: 0.999991890894
  covariance: [0.17258580458408496, 0.012218777577714359, 0.0, 0.0, 0.0, 0.0, 0.012218777577714356, 0.20309585574014613, 0.0, 0.0, 0.0, 0.0, 0.0, 0.0, 0.0, 0.0, 0.0, 0.0, 0.0, 0.0, 0.0, 0.0, 0.0, 0.0, 0.0, 0.0, 0.0, 0.0, 0.0, 0.0, 0.0, 0.0, 0.0, 0.0, 0.0, 0.04928468122752549]
---
header: 
  seq: 2
  stamp: 
    secs: 1653294923
    nsecs: 998374000
  frame_id: "map"
pose: 
  pose: 
    position: 
      x: 0.779045260411
      y: 0.00779595297918
      z: 0.0
    orientation: 
      x: 0.0
      y: 0.0
      z: 0.00512013435969
      w: 0.999986892026
  covariance: [0.15214527390800014, 0.007377462281457899, 0.0, 0.0, 0.0, 0.0, 0.007377462281457916, 0.18650531212657076, 0.0, 0.0, 0.0, 0.0, 0.0, 0.0, 0.0, 0.0, 0.0, 0.0, 0.0, 0.0, 0.0, 0.0, 0.0, 0.0, 0.0, 0.0, 0.0, 0.0, 0.0, 0.0, 0.0, 0.0, 0.0, 0.0, 0.0, 0.04114233062925622]
---
header: 
  seq: 3
  stamp: 
    secs: 1653294926
    nsecs:  58656000
  frame_id: "map"
pose: 
  pose: 
    position: 
      x: 1.36698601455
      y: 0.151786686554
      z: 0.0
    orientation: 
      x: 0.0
      y: 0.0
      z: 0.224001086014
      w: 0.974588894593
  covariance: [0.13223804579717746, 0.008642217133158214, 0.0, 0.0, 0.0, 0.0, 0.008642217133158214, 0.20964199337272119, 0.0, 0.0, 0.0, 0.0, 0.0, 0.0, 0.0, 0.0, 0.0, 0.0, 0.0, 0.0, 0.0, 0.0, 0.0, 0.0, 0.0, 0.0, 0.0, 0.0, 0.0, 0.0, 0.0, 0.0, 0.0, 0.0, 0.0, 0.047135352661488716]
---
header: 
  seq: 4
  stamp: 
    secs: 1653294927
    nsecs: 963594000
  frame_id: "map"
pose: 
  pose: 
    position: 
      x: 1.9654125594
      y: 0.466980230934
      z: 0.0
    orientation: 
      x: 0.0
      y: 0.0
      z: 0.234456973319
      w: 0.972126497768
  covariance: [0.11652695148597703, 0.008480321430771931, 0.0, 0.0, 0.0, 0.0, 0.008480321430771931, 0.24299403203086575, 0.0, 0.0, 0.0, 0.0, 0.0, 0.0, 0.0, 0.0, 0.0, 0.0, 0.0, 0.0, 0.0, 0.0, 0.0, 0.0, 0.0, 0.0, 0.0, 0.0, 0.0, 0.0, 0.0, 0.0, 0.0, 0.0, 0.0, 0.0585452042174191]
---
header: 
  seq: 5
  stamp: 
    secs: 1653294929
    nsecs:  88720000
  frame_id: "map"
pose: 
  pose: 
    position: 
      x: 2.3494897301
      y: 0.700975332818
      z: 0.0
    orientation: 
      x: 0.0
      y: 0.0
      z: 0.238109616563
      w: 0.971238287188
  covariance: [0.09693608651622654, -0.00884732032148916, 0.0, 0.0, 0.0, 0.0, -0.00884732032148916, 0.2538607017055551, 0.0, 0.0, 0.0, 0.0, 0.0, 0.0, 0.0, 0.0, 0.0, 0.0, 0.0, 0.0, 0.0, 0.0, 0.0, 0.0, 0.0, 0.0, 0.0, 0.0, 0.0, 0.0, 0.0, 0.0, 0.0, 0.0, 0.0, 0.05522208484989383]
---
header: 
  seq: 6
  stamp: 
    secs: 1653294930
    nsecs: 237415000
  frame_id: "map"
pose: 
  pose: 
    position: 
      x: 2.73353908534
      y: 0.906419110806
      z: 0.0
    orientation: 
      x: 0.0
      y: 0.0
      z: 0.238141006339
      w: 0.971230591106
  covariance: [0.08957581660794478, -0.02710717937165752, 0.0, 0.0, 0.0, 0.0, -0.02710717937165752, 0.27930829010727487, 0.0, 0.0, 0.0, 0.0, 0.0, 0.0, 0.0, 0.0, 0.0, 0.0, 0.0, 0.0, 0.0, 0.0, 0.0, 0.0, 0.0, 0.0, 0.0, 0.0, 0.0, 0.0, 0.0, 0.0, 0.0, 0.0, 0.0, 0.047821455184318046]
---
header: 
  seq: 7
  stamp: 
    secs: 1653294932
    nsecs:   7043000
  frame_id: "map"
pose: 
  pose: 
    position: 
      x: 3.34147502079
      y: 1.17330044912
      z: 0.0
    orientation: 
      x: 0.0
      y: 0.0
      z: 0.0683269716191
      w: 0.997662981647
  covariance: [0.0968228337836976, -0.04362932613933124, 0.0, 0.0, 0.0, 0.0, -0.04362932613933257, 0.3269519900314053, 0.0, 0.0, 0.0, 0.0, 0.0, 0.0, 0.0, 0.0, 0.0, 0.0, 0.0, 0.0, 0.0, 0.0, 0.0, 0.0, 0.0, 0.0, 0.0, 0.0, 0.0, 0.0, 0.0, 0.0, 0.0, 0.0, 0.0, 0.05726011112241472]
---
header: 
  seq: 8
  stamp: 
    secs: 1653294933
    nsecs:  64985000
  frame_id: "map"
pose: 
  pose: 
    position: 
      x: 3.73976433519
      y: 1.20824894352
      z: 0.0
    orientation: 
      x: 0.0
      y: 0.0
      z: -0.177662058737
      w: 0.984091557166
  covariance: [0.08572121657524967, -0.05331097596372025, 0.0, 0.0, 0.0, 0.0, -0.05331097596372025, 0.374336686831378, 0.0, 0.0, 0.0, 0.0, 0.0, 0.0, 0.0, 0.0, 0.0, 0.0, 0.0, 0.0, 0.0, 0.0, 0.0, 0.0, 0.0, 0.0, 0.0, 0.0, 0.0, 0.0, 0.0, 0.0, 0.0, 0.0, 0.0, 0.05643600203078933]
---
header: 
  seq: 9
  stamp: 
    secs: 1653294933
    nsecs: 557067000
  frame_id: "map"
pose: 
  pose: 
    position: 
      x: 3.92684647824
      y: 1.1256151177
      z: 0.0
    orientation: 
      x: 0.0
      y: 0.0
      z: -0.396955603034
      w: 0.917837812045
  covariance: [0.07261482487197135, -0.026422001175715693, 0.0, 0.0, 0.0, 0.0, -0.026422001175715693, 0.35107450287481123, 0.0, 0.0, 0.0, 0.0, 0.0, 0.0, 0.0, 0.0, 0.0, 0.0, 0.0, 0.0, 0.0, 0.0, 0.0, 0.0, 0.0, 0.0, 0.0, 0.0, 0.0, 0.0, 0.0, 0.0, 0.0, 0.0, 0.0, 0.050208623512020184]
---
header: 
  seq: 10
  stamp: 
    secs: 1653294933
    nsecs: 909164000
  frame_id: "map"
pose: 
  pose: 
    position: 
      x: 4.03501850341
      y: 0.992544827649
      z: 0.0
    orientation: 
      x: 0.0
      y: 0.0
      z: -0.577440575969
      w: 0.8164327169
  covariance: [0.05982246169338268, -0.014979882872906636, 0.0, 0.0, 0.0, 0.0, -0.014979882872906636, 0.3239600774133433, 0.0, 0.0, 0.0, 0.0, 0.0, 0.0, 0.0, 0.0, 0.0, 0.0, 0.0, 0.0, 0.0, 0.0, 0.0, 0.0, 0.0, 0.0, 0.0, 0.0, 0.0, 0.0, 0.0, 0.0, 0.0, 0.0, 0.0, 0.04784286634652557]
---
header: 
  seq: 11
  stamp: 
    secs: 1653294934
    nsecs: 402954000
  frame_id: "map"
pose: 
  pose: 
    position: 
      x: 4.08236123721
      y: 0.784487369532
      z: 0.0
    orientation: 
      x: 0.0
      y: 0.0
      z: -0.678040918133
      w: 0.735024158336
  covariance: [0.04504235461202555, 2.5660362128920866e-05, 0.0, 0.0, 0.0, 0.0, 2.5660362128920866e-05, 0.2555488677581119, 0.0, 0.0, 0.0, 0.0, 0.0, 0.0, 0.0, 0.0, 0.0, 0.0, 0.0, 0.0, 0.0, 0.0, 0.0, 0.0, 0.0, 0.0, 0.0, 0.0, 0.0, 0.0, 0.0, 0.0, 0.0, 0.0, 0.0, 0.04104402312493377]
---
header: 
  seq: 12
  stamp: 
    secs: 1653294939
    nsecs: 134140000
  frame_id: "map"
pose: 
  pose: 
    position: 
      x: 3.73230349007
      y: -0.569363603412
      z: 0.0
    orientation: 
      x: 0.0
      y: 0.0
      z: -0.981837794231
      w: 0.18972228604
  covariance: [1.0750627674930229, -0.013341255525959106, 0.0, 0.0, 0.0, 0.0, -0.013341255525959106, 1.0126488036398018, 0.0, 0.0, 0.0, 0.0, 0.0, 0.0, 0.0, 0.0, 0.0, 0.0, 0.0, 0.0, 0.0, 0.0, 0.0, 0.0, 0.0, 0.0, 0.0, 0.0, 0.0, 0.0, 0.0, 0.0, 0.0, 0.0, 0.0, 1.0799429104236373]
---
header: 
  seq: 13
  stamp: 
    secs: 1653294939
    nsecs: 490440000
  frame_id: "map"
pose: 
  pose: 
    position: 
      x: 3.61760661934
      y: -0.621962891562
      z: 0.0
    orientation: 
      x: 0.0
      y: 0.0
      z: -0.99678333091
      w: 0.0801435663079
  covariance: [0.9583824087657096, -0.02730080968860582, 0.0, 0.0, 0.0, 0.0, -0.02730080968860671, 1.0109390476497886, 0.0, 0.0, 0.0, 0.0, 0.0, 0.0, 0.0, 0.0, 0.0, 0.0, 0.0, 0.0, 0.0, 0.0, 0.0, 0.0, 0.0, 0.0, 0.0, 0.0, 0.0, 0.0, 0.0, 0.0, 0.0, 0.0, 0.0, 0.9099177212713795]
---
header: 
  seq: 14
  stamp: 
    secs: 1653294940
    nsecs: 264442000
  frame_id: "map"
pose: 
  pose: 
    position: 
      x: 3.30664284817
      y: -0.596174530043
      z: 0.0
    orientation: 
      x: 0.0
      y: 0.0
      z: 0.979347182359
      w: 0.202185796744
  covariance: [0.7903245455458574, -0.021458027033598004, 0.0, 0.0, 0.0, 0.0, -0.021458027033598004, 0.9489075553349069, 0.0, 0.0, 0.0, 0.0, 0.0, 0.0, 0.0, 0.0, 0.0, 0.0, 0.0, 0.0, 0.0, 0.0, 0.0, 0.0, 0.0, 0.0, 0.0, 0.0, 0.0, 0.0, 0.0, 0.0, 0.0, 0.0, 0.0, 0.7961595217043201]
---
header: 
  seq: 15
  stamp: 
    secs: 1653294941
    nsecs: 100267000
  frame_id: "map"
pose: 
  pose: 
    position: 
      x: 3.10173091459
      y: -0.486007967879
      z: 0.0
    orientation: 
      x: 0.0
      y: 0.0
      z: 0.958943679208
      w: 0.283596579856
  covariance: [0.6319404399886732, 0.042739995912892015, 0.0, 0.0, 0.0, 0.0, 0.042739995912892015, 0.9004532252060842, 0.0, 0.0, 0.0, 0.0, 0.0, 0.0, 0.0, 0.0, 0.0, 0.0, 0.0, 0.0, 0.0, 0.0, 0.0, 0.0, 0.0, 0.0, 0.0, 0.0, 0.0, 0.0, 0.0, 0.0, 0.0, 0.0, 0.0, 0.6326869272902216]
---
header: 
  seq: 16
  stamp: 
    secs: 1653294941
    nsecs: 890359000
  frame_id: "map"
pose: 
  pose: 
    position: 
      x: 2.83867803181
      y: -0.393901540705
      z: 0.0
    orientation: 
      x: 0.0
      y: 0.0
      z: 0.961555593521
      w: 0.274610343156
  covariance: [0.5595569039194626, 0.0776771819378721, 0.0, 0.0, 0.0, 0.0, 0.07767718193787221, 0.7923690987666507, 0.0, 0.0, 0.0, 0.0, 0.0, 0.0, 0.0, 0.0, 0.0, 0.0, 0.0, 0.0, 0.0, 0.0, 0.0, 0.0, 0.0, 0.0, 0.0, 0.0, 0.0, 0.0, 0.0, 0.0, 0.0, 0.0, 0.0, 0.5400362878904313]
---
header: 
  seq: 17
  stamp: 
    secs: 1653294942
    nsecs: 885954000
  frame_id: "map"
pose: 
  pose: 
    position: 
      x: 2.5139120091
      y: -0.20754728438
      z: 0.0
    orientation: 
      x: 0.0
      y: 0.0
      z: 0.988568162726
      w: 0.150774625332
  covariance: [0.5248711779304527, 0.13938579125188733, 0.0, 0.0, 0.0, 0.0, 0.13938579125188733, 0.8014515972635373, 0.0, 0.0, 0.0, 0.0, 0.0, 0.0, 0.0, 0.0, 0.0, 0.0, 0.0, 0.0, 0.0, 0.0, 0.0, 0.0, 0.0, 0.0, 0.0, 0.0, 0.0, 0.0, 0.0, 0.0, 0.0, 0.0, 0.0, 0.44453768470941374]
---
header: 
  seq: 18
  stamp: 
    secs: 1653294944
    nsecs: 156664000
  frame_id: "map"
pose: 
  pose: 
    position: 
      x: 2.0984470675
      y: -0.0409460976834
      z: 0.0
    orientation: 
      x: 0.0
      y: 0.0
      z: 0.999780176702
      w: 0.0209665989921
  covariance: [0.6056080574738409, 0.1949152842780743, 0.0, 0.0, 0.0, 0.0, 0.1949152842780743, 0.9356596680369526, 0.0, 0.0, 0.0, 0.0, 0.0, 0.0, 0.0, 0.0, 0.0, 0.0, 0.0, 0.0, 0.0, 0.0, 0.0, 0.0, 0.0, 0.0, 0.0, 0.0, 0.0, 0.0, 0.0, 0.0, 0.0, 0.0, 0.0, 0.38802685236024603]
---
header: 
  seq: 19
  stamp: 
    secs: 1653294945
    nsecs: 643589000
  frame_id: "map"
pose: 
  pose: 
    position: 
      x: 1.51295028364
      y: -0.0660849260498
      z: 0.0
    orientation: 
      x: 0.0
      y: 0.0
      z: 0.999637265266
      w: 0.0269320977955
  covariance: [0.767325469251587, 0.20818745838858888, 0.0, 0.0, 0.0, 0.0, 0.2081874583885889, 1.3324650717723845, 0.0, 0.0, 0.0, 0.0, 0.0, 0.0, 0.0, 0.0, 0.0, 0.0, 0.0, 0.0, 0.0, 0.0, 0.0, 0.0, 0.0, 0.0, 0.0, 0.0, 0.0, 0.0, 0.0, 0.0, 0.0, 0.0, 0.0, 0.3690120457119611]
---
header: 
  seq: 20
  stamp: 
    secs: 1653294947
    nsecs: 279660000
  frame_id: "map"
pose: 
  pose: 
    position: 
      x: 0.708626338643
      y: -0.00931125887784
      z: 0.0
    orientation: 
      x: 0.0
      y: 0.0
      z: -0.999806727626
      w: 0.0196597913168
  covariance: [1.1010250436419557, 0.27747262889578045, 0.0, 0.0, 0.0, 0.0, 0.27747262889578045, 1.9670777879147963, 0.0, 0.0, 0.0, 0.0, 0.0, 0.0, 0.0, 0.0, 0.0, 0.0, 0.0, 0.0, 0.0, 0.0, 0.0, 0.0, 0.0, 0.0, 0.0, 0.0, 0.0, 0.0, 0.0, 0.0, 0.0, 0.0, 0.0, 0.37260733488094067]
---
header: 
  seq: 21
  stamp: 
    secs: 1653294947
    nsecs: 841570000
  frame_id: "map"
pose: 
  pose: 
    position: 
      x: 0.412815587529
      y: -0.063413652129
      z: 0.0
    orientation: 
      x: 0.0
      y: 0.0
      z: -0.9923106699
      w: 0.123772106722
  covariance: [1.161704450782063, 0.33483096467431633, 0.0, 0.0, 0.0, 0.0, 0.3348309646743163, 1.9369128778668319, 0.0, 0.0, 0.0, 0.0, 0.0, 0.0, 0.0, 0.0, 0.0, 0.0, 0.0, 0.0, 0.0, 0.0, 0.0, 0.0, 0.0, 0.0, 0.0, 0.0, 0.0, 0.0, 0.0, 0.0, 0.0, 0.0, 0.0, 0.33147845503786416]
---
header: 
  seq: 22
  stamp: 
    secs: 1653294948
    nsecs: 705593000
  frame_id: "map"
pose: 
  pose: 
    position: 
      x: -0.0142759039786
      y: -0.190888090228
      z: 0.0
    orientation: 
      x: 0.0
      y: 0.0
      z: -0.976805138581
      w: 0.214130150242
  covariance: [1.0686868891031243, 0.3672688530817428, 0.0, 0.0, 0.0, 0.0, 0.36726885308174273, 2.1157136272784762, 0.0, 0.0, 0.0, 0.0, 0.0, 0.0, 0.0, 0.0, 0.0, 0.0, 0.0, 0.0, 0.0, 0.0, 0.0, 0.0, 0.0, 0.0, 0.0, 0.0, 0.0, 0.0, 0.0, 0.0, 0.0, 0.0, 0.0, 0.2801893403651908]
---
header: 
  seq: 23
  stamp: 
    secs: 1653294949
    nsecs: 328132000
  frame_id: "map"
pose: 
  pose: 
    position: 
      x: -0.395078633047
      y: -0.408710344039
      z: 0.0
    orientation: 
      x: 0.0
      y: 0.0
      z: -0.955193538647
      w: 0.295981931418
  covariance: [1.0069313661259458, 0.306688341870701, 0.0, 0.0, 0.0, 0.0, 0.30668834187070093, 2.0778774743566446, 0.0, 0.0, 0.0, 0.0, 0.0, 0.0, 0.0, 0.0, 0.0, 0.0, 0.0, 0.0, 0.0, 0.0, 0.0, 0.0, 0.0, 0.0, 0.0, 0.0, 0.0, 0.0, 0.0, 0.0, 0.0, 0.0, 0.0, 0.2382694185385604]
---
header: 
  seq: 24
  stamp: 
    secs: 1653294950
    nsecs: 411229000
  frame_id: "map"
pose: 
  pose: 
    position: 
      x: -0.875944641643
      y: -0.77799519292
      z: 0.0
    orientation: 
      x: 0.0
      y: 0.0
      z: -0.901309882053
      w: 0.433174902912
  covariance: [1.0614832382796857, 0.1730299470558081, 0.0, 0.0, 0.0, 0.0, 0.1730299470558081, 1.964077444373105, 0.0, 0.0, 0.0, 0.0, 0.0, 0.0, 0.0, 0.0, 0.0, 0.0, 0.0, 0.0, 0.0, 0.0, 0.0, 0.0, 0.0, 0.0, 0.0, 0.0, 0.0, 0.0, 0.0, 0.0, 0.0, 0.0, 0.0, 0.19375969848635005]
---
header: 
  seq: 25
  stamp: 
    secs: 1653294951
    nsecs: 743657000
  frame_id: "map"
pose: 
  pose: 
    position: 
      x: -1.3732903911
      y: -1.38045796614
      z: 0.0
    orientation: 
      x: 0.0
      y: 0.0
      z: -0.920717433959
      w: 0.390229940937
  covariance: [0.8393392666426895, -0.021222495934802632, 0.0, 0.0, 0.0, 0.0, -0.021222495934802632, 1.749966299397822, 0.0, 0.0, 0.0, 0.0, 0.0, 0.0, 0.0, 0.0, 0.0, 0.0, 0.0, 0.0, 0.0, 0.0, 0.0, 0.0, 0.0, 0.0, 0.0, 0.0, 0.0, 0.0, 0.0, 0.0, 0.0, 0.0, 0.0, 0.14938821891197457]
---
header: 
  seq: 26
  stamp: 
    secs: 1653294952
    nsecs: 826487000
  frame_id: "map"
pose: 
  pose: 
    position: 
      x: -1.8953612195
      y: -1.93261710776
      z: 0.0
    orientation: 
      x: 0.0
      y: 0.0
      z: -0.931635583385
      w: 0.36339391818
  covariance: [0.8132717766547524, 0.03616989011214189, 0.0, 0.0, 0.0, 0.0, 0.03616989011214189, 1.819866342354819, 0.0, 0.0, 0.0, 0.0, 0.0, 0.0, 0.0, 0.0, 0.0, 0.0, 0.0, 0.0, 0.0, 0.0, 0.0, 0.0, 0.0, 0.0, 0.0, 0.0, 0.0, 0.0, 0.0, 0.0, 0.0, 0.0, 0.0, 0.13248438364690956]
---
header: 
  seq: 27
  stamp: 
    secs: 1653294954
    nsecs:  95572000
  frame_id: "map"
pose: 
  pose: 
    position: 
      x: -2.43837597213
      y: -2.38829889129
      z: 0.0
    orientation: 
      x: 0.0
      y: 0.0
      z: -0.930318405206
      w: 0.366752866294
  covariance: [0.7309401605730512, 0.11416637699060761, 0.0, 0.0, 0.0, 0.0, 0.1141663769906085, 1.528948568616964, 0.0, 0.0, 0.0, 0.0, 0.0, 0.0, 0.0, 0.0, 0.0, 0.0, 0.0, 0.0, 0.0, 0.0, 0.0, 0.0, 0.0, 0.0, 0.0, 0.0, 0.0, 0.0, 0.0, 0.0, 0.0, 0.0, 0.0, 0.10257224874679022]
---
header: 
  seq: 28
  stamp: 
    secs: 1653294957
    nsecs: 708692000
  frame_id: "map"
pose: 
  pose: 
    position: 
      x: -2.2716366165
      y: -2.19286106125
      z: 0.0
    orientation: 
      x: 0.0
      y: 0.0
      z: -0.928868754284
      w: 0.370409013545
  covariance: [0.4681639973670606, 0.1466955400155081, 0.0, 0.0, 0.0, 0.0, 0.1466955400155081, 0.9031352347528347, 0.0, 0.0, 0.0, 0.0, 0.0, 0.0, 0.0, 0.0, 0.0, 0.0, 0.0, 0.0, 0.0, 0.0, 0.0, 0.0, 0.0, 0.0, 0.0, 0.0, 0.0, 0.0, 0.0, 0.0, 0.0, 0.0, 0.0, 0.07574303415032735]
---
header: 
  seq: 29
  stamp: 
    secs: 1653294959
    nsecs: 555165000
  frame_id: "map"
pose: 
  pose: 
    position: 
      x: -2.01452200982
      y: -1.87865599041
      z: 0.0
    orientation: 
      x: 0.0
      y: 0.0
      z: -0.926984809874
      w: 0.375098869983
  covariance: [0.25737150307710577, 0.0767799123144739, 0.0, 0.0, 0.0, 0.0, 0.0767799123144739, 0.4367509142125736, 0.0, 0.0, 0.0, 0.0, 0.0, 0.0, 0.0, 0.0, 0.0, 0.0, 0.0, 0.0, 0.0, 0.0, 0.0, 0.0, 0.0, 0.0, 0.0, 0.0, 0.0, 0.0, 0.0, 0.0, 0.0, 0.0, 0.0, 0.05204842311547966]
---
header: 
  seq: 30
  stamp: 
    secs: 1653294961
    nsecs: 186515000
  frame_id: "map"
pose: 
  pose: 
    position: 
      x: -1.74027381314
      y: -1.58925528525
      z: 0.0
    orientation: 
      x: 0.0
      y: 0.0
      z: -0.929926515478
      w: 0.367745395364
  covariance: [0.20649229261264335, 0.07881334639791904, 0.0, 0.0, 0.0, 0.0, 0.0788133463979186, 0.27201978761867496, 0.0, 0.0, 0.0, 0.0, 0.0, 0.0, 0.0, 0.0, 0.0, 0.0, 0.0, 0.0, 0.0, 0.0, 0.0, 0.0, 0.0, 0.0, 0.0, 0.0, 0.0, 0.0, 0.0, 0.0, 0.0, 0.0, 0.0, 0.041639311639744776]
---
header: 
  seq: 31
  stamp: 
    secs: 1653294962
    nsecs: 177282000
  frame_id: "map"
pose: 
  pose: 
    position: 
      x: -1.4464068533
      y: -1.32023386617
      z: 0.0
    orientation: 
      x: 0.0
      y: 0.0
      z: -0.929193130883
      w: 0.36959454206
  covariance: [0.15074537123218423, 0.028246925790653465, 0.0, 0.0, 0.0, 0.0, 0.028246925790653465, 0.1469497058784608, 0.0, 0.0, 0.0, 0.0, 0.0, 0.0, 0.0, 0.0, 0.0, 0.0, 0.0, 0.0, 0.0, 0.0, 0.0, 0.0, 0.0, 0.0, 0.0, 0.0, 0.0, 0.0, 0.0, 0.0, 0.0, 0.0, 0.0, 0.033835284405271435]
---
header: 
  seq: 32
  stamp: 
    secs: 1653294963
    nsecs: 748473000
  frame_id: "map"
pose: 
  pose: 
    position: 
      x: -1.17666942305
      y: -1.11266834886
      z: 0.0
    orientation: 
      x: 0.0
      y: 0.0
      z: -0.928666394126
      w: 0.370916066545
  covariance: [0.13397520342796887, 0.010032717963726734, 0.0, 0.0, 0.0, 0.0, 0.010032717963726734, 0.11895300662900454, 0.0, 0.0, 0.0, 0.0, 0.0, 0.0, 0.0, 0.0, 0.0, 0.0, 0.0, 0.0, 0.0, 0.0, 0.0, 0.0, 0.0, 0.0, 0.0, 0.0, 0.0, 0.0, 0.0, 0.0, 0.0, 0.0, 0.0, 0.03008724647496577]
---
header: 
  seq: 33
  stamp: 
    secs: 1653294965
    nsecs: 304802000
  frame_id: "map"
pose: 
  pose: 
    position: 
      x: -0.884069484248
      y: -0.893136538046
      z: 0.0
    orientation: 
      x: 0.0
      y: 0.0
      z: -0.913819153579
      w: 0.406121354465
  covariance: [0.12626269342322194, 0.035181840305605894, 0.0, 0.0, 0.0, 0.0, 0.035181840305605894, 0.13923963557390506, 0.0, 0.0, 0.0, 0.0, 0.0, 0.0, 0.0, 0.0, 0.0, 0.0, 0.0, 0.0, 0.0, 0.0, 0.0, 0.0, 0.0, 0.0, 0.0, 0.0, 0.0, 0.0, 0.0, 0.0, 0.0, 0.0, 0.0, 0.02925806074437941]
---
header: 
  seq: 34
  stamp: 
    secs: 1653294966
    nsecs: 587334000
  frame_id: "map"
pose: 
  pose: 
    position: 
      x: -0.596748183244
      y: -0.650033997021
      z: 0.0
    orientation: 
      x: 0.0
      y: 0.0
      z: -0.979572986455
      w: 0.201088946008
  covariance: [0.15302089605674524, 0.045777051705992, 0.0, 0.0, 0.0, 0.0, 0.045777051705992, 0.14205343535691217, 0.0, 0.0, 0.0, 0.0, 0.0, 0.0, 0.0, 0.0, 0.0, 0.0, 0.0, 0.0, 0.0, 0.0, 0.0, 0.0, 0.0, 0.0, 0.0, 0.0, 0.0, 0.0, 0.0, 0.0, 0.0, 0.0, 0.0, 0.03460009354275772]
---
header: 
  seq: 35
  stamp: 
    secs: 1653294967
    nsecs: 273466000
  frame_id: "map"
pose: 
  pose: 
    position: 
      x: -0.429200046067
      y: -0.596993812214
      z: 0.0
    orientation: 
      x: 0.0
      y: 0.0
      z: -0.996924254337
      w: 0.0783711114807
  covariance: [0.14073058350709025, 0.05780211416980924, 0.0, 0.0, 0.0, 0.0, 0.05780211416980913, 0.15245655270290515, 0.0, 0.0, 0.0, 0.0, 0.0, 0.0, 0.0, 0.0, 0.0, 0.0, 0.0, 0.0, 0.0, 0.0, 0.0, 0.0, 0.0, 0.0, 0.0, 0.0, 0.0, 0.0, 0.0, 0.0, 0.0, 0.0, 0.0, 0.03503529196848189]
---
header: 
  seq: 36
  stamp: 
    secs: 1653294967
    nsecs: 895220000
  frame_id: "map"
pose: 
  pose: 
    position: 
      x: -0.264213295825
      y: -0.56167845299
      z: 0.0
    orientation: 
      x: 0.0
      y: 0.0
      z: 0.999918351087
      w: 0.0127785428999
  covariance: [0.10257050966949886, 0.03759694963914764, 0.0, 0.0, 0.0, 0.0, 0.03759694963914764, 0.13174677434787585, 0.0, 0.0, 0.0, 0.0, 0.0, 0.0, 0.0, 0.0, 0.0, 0.0, 0.0, 0.0, 0.0, 0.0, 0.0, 0.0, 0.0, 0.0, 0.0, 0.0, 0.0, 0.0, 0.0, 0.0, 0.0, 0.0, 0.0, 0.02818332977756347]
---
header: 
  seq: 37
  stamp: 
    secs: 1653294969
    nsecs: 114302000
  frame_id: "map"
pose: 
  pose: 
    position: 
      x: 0.102413477836
      y: -0.583782236333
      z: 0.0
    orientation: 
      x: 0.0
      y: 0.0
      z: 0.999275859796
      w: 0.0380493893303
  covariance: [0.0789201363909961, 0.03373169465296214, 0.0, 0.0, 0.0, 0.0, 0.03373169465296214, 0.12997597319496956, 0.0, 0.0, 0.0, 0.0, 0.0, 0.0, 0.0, 0.0, 0.0, 0.0, 0.0, 0.0, 0.0, 0.0, 0.0, 0.0, 0.0, 0.0, 0.0, 0.0, 0.0, 0.0, 0.0, 0.0, 0.0, 0.0, 0.0, 0.026645319936226083]
---
header: 
  seq: 38
  stamp: 
    secs: 1653294970
    nsecs: 255216000
  frame_id: "map"
pose: 
  pose: 
    position: 
      x: 0.434292487166
      y: -0.633869876174
      z: 0.0
    orientation: 
      x: 0.0
      y: 0.0
      z: 0.999155147286
      w: 0.041097343617
  covariance: [0.03305082843071164, -0.008553070649169714, 0.0, 0.0, 0.0, 0.0, -0.008553070649169714, 0.0695170007223897, 0.0, 0.0, 0.0, 0.0, 0.0, 0.0, 0.0, 0.0, 0.0, 0.0, 0.0, 0.0, 0.0, 0.0, 0.0, 0.0, 0.0, 0.0, 0.0, 0.0, 0.0, 0.0, 0.0, 0.0, 0.0, 0.0, 0.0, 0.008794494850958502]
---
header: 
  seq: 39
  stamp: 
    secs: 1653294972
    nsecs: 377601000
  frame_id: "map"
pose: 
  pose: 
    position: 
      x: 1.10108122989
      y: -0.628313818935
      z: 0.0
    orientation: 
      x: 0.0
      y: 0.0
      z: -0.995722717082
      w: 0.0923919405969
  covariance: [0.032141396025861635, -0.005048570634528571, 0.0, 0.0, 0.0, 0.0, -0.005048570634528571, 0.0875484139800281, 0.0, 0.0, 0.0, 0.0, 0.0, 0.0, 0.0, 0.0, 0.0, 0.0, 0.0, 0.0, 0.0, 0.0, 0.0, 0.0, 0.0, 0.0, 0.0, 0.0, 0.0, 0.0, 0.0, 0.0, 0.0, 0.0, 0.0, 0.01948462967730948]
---
header: 
  seq: 40
  stamp: 
    secs: 1653294974
    nsecs:  93471000
  frame_id: "map"
pose: 
  pose: 
    position: 
      x: 1.58717887117
      y: -0.56907436303
      z: 0.0
    orientation: 
      x: 0.0
      y: 0.0
      z: -0.997145556791
      w: 0.0755032355034
  covariance: [0.03261850515229758, -0.006934942856691495, 0.0, 0.0, 0.0, 0.0, -0.006934942856691495, 0.08704621033830234, 0.0, 0.0, 0.0, 0.0, 0.0, 0.0, 0.0, 0.0, 0.0, 0.0, 0.0, 0.0, 0.0, 0.0, 0.0, 0.0, 0.0, 0.0, 0.0, 0.0, 0.0, 0.0, 0.0, 0.0, 0.0, 0.0, 0.0, 0.019857901022932625]
---
header: 
  seq: 41
  stamp: 
    secs: 1653294975
    nsecs: 362685000
  frame_id: "map"
pose: 
  pose: 
    position: 
      x: 1.92707744184
      y: -0.471747387201
      z: 0.0
    orientation: 
      x: 0.0
      y: 0.0
      z: -0.997429208264
      w: 0.0716587364021
  covariance: [0.029272867930380198, -0.0033277000690549174, 0.0, 0.0, 0.0, 0.0, -0.0033277000690549174, 0.08261268488538276, 0.0, 0.0, 0.0, 0.0, 0.0, 0.0, 0.0, 0.0, 0.0, 0.0, 0.0, 0.0, 0.0, 0.0, 0.0, 0.0, 0.0, 0.0, 0.0, 0.0, 0.0, 0.0, 0.0, 0.0, 0.0, 0.0, 0.0, 0.01669892998282472]
---
header: 
  seq: 42
  stamp: 
    secs: 1653294976
    nsecs: 366936000
  frame_id: "map"
pose: 
  pose: 
    position: 
      x: 2.23864771716
      y: -0.458739814811
      z: 0.0
    orientation: 
      x: 0.0
      y: 0.0
      z: 0.997617773474
      w: 0.0689838970276
  covariance: [0.027239547874474468, -0.0012793921997302782, 0.0, 0.0, 0.0, 0.0, -0.0012793921997302782, 0.07759997998674609, 0.0, 0.0, 0.0, 0.0, 0.0, 0.0, 0.0, 0.0, 0.0, 0.0, 0.0, 0.0, 0.0, 0.0, 0.0, 0.0, 0.0, 0.0, 0.0, 0.0, 0.0, 0.0, 0.0, 0.0, 0.0, 0.0, 0.0, 0.014171323392760145]
---
header: 
  seq: 43
  stamp: 
    secs: 1653294977
    nsecs: 355452000
  frame_id: "map"
pose: 
  pose: 
    position: 
      x: 2.51020987047
      y: -0.548597975117
      z: 0.0
    orientation: 
      x: 0.0
      y: 0.0
      z: 0.963406102213
      w: 0.268046044961
  covariance: [0.028001818079770757, 0.002014626501306349, 0.0, 0.0, 0.0, 0.0, 0.002014626501306349, 0.0732060990858277, 0.0, 0.0, 0.0, 0.0, 0.0, 0.0, 0.0, 0.0, 0.0, 0.0, 0.0, 0.0, 0.0, 0.0, 0.0, 0.0, 0.0, 0.0, 0.0, 0.0, 0.0, 0.0, 0.0, 0.0, 0.0, 0.0, 0.0, 0.014955958041898549]
---
header: 
  seq: 44
  stamp: 
    secs: 1653294978
    nsecs: 217440000
  frame_id: "map"
pose: 
  pose: 
    position: 
      x: 2.66585259988
      y: -0.71420218157
      z: 0.0
    orientation: 
      x: 0.0
      y: 0.0
      z: 0.878965424682
      w: 0.476885502205
  covariance: [0.027262404333855628, 0.008401654037748063, 0.0, 0.0, 0.0, 0.0, 0.008401654037748285, 0.057466763095455065, 0.0, 0.0, 0.0, 0.0, 0.0, 0.0, 0.0, 0.0, 0.0, 0.0, 0.0, 0.0, 0.0, 0.0, 0.0, 0.0, 0.0, 0.0, 0.0, 0.0, 0.0, 0.0, 0.0, 0.0, 0.0, 0.0, 0.0, 0.01279762784186145]
---
header: 
  seq: 45
  stamp: 
    secs: 1653294982
    nsecs: 309489000
  frame_id: "map"
pose: 
  pose: 
    position: 
      x: 2.41781783746
      y: -0.346712627555
      z: 0.0
    orientation: 
      x: 0.0
      y: 0.0
      z: 0.876306394873
      w: 0.481754192825
  covariance: [0.026109572527693636, 0.0006790282865518638, 0.0, 0.0, 0.0, 0.0, 0.0006790282865518638, 0.049466448873526275, 0.0, 0.0, 0.0, 0.0, 0.0, 0.0, 0.0, 0.0, 0.0, 0.0, 0.0, 0.0, 0.0, 0.0, 0.0, 0.0, 0.0, 0.0, 0.0, 0.0, 0.0, 0.0, 0.0, 0.0, 0.0, 0.0, 0.0, 0.013976170524982854]
---
header: 
  seq: 46
  stamp: 
    secs: 1653294984
    nsecs: 456194000
  frame_id: "map"
pose: 
  pose: 
    position: 
      x: 2.25532952722
      y: -0.0899085384395
      z: 0.0
    orientation: 
      x: 0.0
      y: 0.0
      z: 0.875150343241
      w: 0.483851089412
  covariance: [0.024275439770252483, 0.0005605289759118837, 0.0, 0.0, 0.0, 0.0, 0.0005605289759119114, 0.03600125289157714, 0.0, 0.0, 0.0, 0.0, 0.0, 0.0, 0.0, 0.0, 0.0, 0.0, 0.0, 0.0, 0.0, 0.0, 0.0, 0.0, 0.0, 0.0, 0.0, 0.0, 0.0, 0.0, 0.0, 0.0, 0.0, 0.0, 0.0, 0.012507591417715418]
---
header: 
  seq: 47
  stamp: 
    secs: 1653294986
    nsecs: 285417000
  frame_id: "map"
pose: 
  pose: 
    position: 
      x: 2.08134310132
      y: 0.142837323632
      z: 0.0
    orientation: 
      x: 0.0
      y: 0.0
      z: 0.935362415609
      w: 0.35369075683
  covariance: [0.023531540926634342, 0.0017352287090884877, 0.0, 0.0, 0.0, 0.0, 0.0017352287090884322, 0.03361413040020724, 0.0, 0.0, 0.0, 0.0, 0.0, 0.0, 0.0, 0.0, 0.0, 0.0, 0.0, 0.0, 0.0, 0.0, 0.0, 0.0, 0.0, 0.0, 0.0, 0.0, 0.0, 0.0, 0.0, 0.0, 0.0, 0.0, 0.0, 0.011242114725002823]
---
header: 
  seq: 48
  stamp: 
    secs: 1653294987
    nsecs: 697389000
  frame_id: "map"
pose: 
  pose: 
    position: 
      x: 1.81357017656
      y: 0.351790387659
      z: 0.0
    orientation: 
      x: 0.0
      y: 0.0
      z: 0.939696570218
      w: 0.342009292155
  covariance: [0.02719421979255765, 0.00500092222343862, 0.0, 0.0, 0.0, 0.0, 0.00500092222343862, 0.0316287912612164, 0.0, 0.0, 0.0, 0.0, 0.0, 0.0, 0.0, 0.0, 0.0, 0.0, 0.0, 0.0, 0.0, 0.0, 0.0, 0.0, 0.0, 0.0, 0.0, 0.0, 0.0, 0.0, 0.0, 0.0, 0.0, 0.0, 0.0, 0.010167361047821379]
---
header: 
  seq: 49
  stamp: 
    secs: 1653294988
    nsecs: 898450000
  frame_id: "map"
pose: 
  pose: 
    position: 
      x: 1.59101882029
      y: 0.508934690387
      z: 0.0
    orientation: 
      x: 0.0
      y: 0.0
      z: 0.977707738501
      w: 0.209970421906
  covariance: [0.027804631690325987, 0.006524156811716808, 0.0, 0.0, 0.0, 0.0, 0.006524156811716697, 0.034185897343857685, 0.0, 0.0, 0.0, 0.0, 0.0, 0.0, 0.0, 0.0, 0.0, 0.0, 0.0, 0.0, 0.0, 0.0, 0.0, 0.0, 0.0, 0.0, 0.0, 0.0, 0.0, 0.0, 0.0, 0.0, 0.0, 0.0, 0.0, 0.009337212198786131]
---
header: 
  seq: 50
  stamp: 
    secs: 1653294989
    nsecs: 742429000
  frame_id: "map"
pose: 
  pose: 
    position: 
      x: 1.43029221685
      y: 0.542811870421
      z: 0.0
    orientation: 
      x: 0.0
      y: 0.0
      z: 0.994701699969
      w: 0.102803346628
  covariance: [0.024649870898111992, 0.007843484687571345, 0.0, 0.0, 0.0, 0.0, 0.007843484687571345, 0.03015627839074808, 0.0, 0.0, 0.0, 0.0, 0.0, 0.0, 0.0, 0.0, 0.0, 0.0, 0.0, 0.0, 0.0, 0.0, 0.0, 0.0, 0.0, 0.0, 0.0, 0.0, 0.0, 0.0, 0.0, 0.0, 0.0, 0.0, 0.0, 0.008316500620144917]
---
header: 
  seq: 51
  stamp: 
    secs: 1653294990
    nsecs: 811699000
  frame_id: "map"
pose: 
  pose: 
    position: 
      x: 1.06347729609
      y: 0.586567285558
      z: 0.0
    orientation: 
      x: 0.0
      y: 0.0
      z: 0.998337523292
      w: 0.0576384384449
  covariance: [0.02441762118475821, 0.00972290860286218, 0.0, 0.0, 0.0, 0.0, 0.009722908602862068, 0.034714061426720955, 0.0, 0.0, 0.0, 0.0, 0.0, 0.0, 0.0, 0.0, 0.0, 0.0, 0.0, 0.0, 0.0, 0.0, 0.0, 0.0, 0.0, 0.0, 0.0, 0.0, 0.0, 0.0, 0.0, 0.0, 0.0, 0.0, 0.0, 0.0089485211567579]
---
header: 
  seq: 52
  stamp: 
    secs: 1653294991
    nsecs: 871082000
  frame_id: "map"
pose: 
  pose: 
    position: 
      x: 0.730445220852
      y: 0.604988912437
      z: 0.0
    orientation: 
      x: 0.0
      y: 0.0
      z: 0.998295706696
      w: 0.0583582212882
  covariance: [0.0200461993888017, 0.009875336700462756, 0.0, 0.0, 0.0, 0.0, 0.009875336700462756, 0.037624709206351414, 0.0, 0.0, 0.0, 0.0, 0.0, 0.0, 0.0, 0.0, 0.0, 0.0, 0.0, 0.0, 0.0, 0.0, 0.0, 0.0, 0.0, 0.0, 0.0, 0.0, 0.0, 0.0, 0.0, 0.0, 0.0, 0.0, 0.0, 0.007476243108577259]
---
header: 
  seq: 53
  stamp: 
    secs: 1653294993
    nsecs: 365522000
  frame_id: "map"
pose: 
  pose: 
    position: 
      x: 0.152774984784
      y: 0.665154579222
      z: 0.0
    orientation: 
      x: 0.0
      y: 0.0
      z: 0.998762570033
      w: 0.0497325718291
  covariance: [0.022599229216460116, 0.009764666705549332, 0.0, 0.0, 0.0, 0.0, 0.009764666705549332, 0.04234361575686374, 0.0, 0.0, 0.0, 0.0, 0.0, 0.0, 0.0, 0.0, 0.0, 0.0, 0.0, 0.0, 0.0, 0.0, 0.0, 0.0, 0.0, 0.0, 0.0, 0.0, 0.0, 0.0, 0.0, 0.0, 0.0, 0.0, 0.0, 0.012644578723723274]
---
header: 
  seq: 54
  stamp: 
    secs: 1653294994
    nsecs: 928193000
  frame_id: "map"
pose: 
  pose: 
    position: 
      x: -0.441193821113
      y: 0.732335135482
      z: 0.0
    orientation: 
      x: 0.0
      y: 0.0
      z: 0.987921445471
      w: 0.154955534196
  covariance: [0.029254618539039573, 0.010313634905910807, 0.0, 0.0, 0.0, 0.0, 0.010313634905910807, 0.05421227358646341, 0.0, 0.0, 0.0, 0.0, 0.0, 0.0, 0.0, 0.0, 0.0, 0.0, 0.0, 0.0, 0.0, 0.0, 0.0, 0.0, 0.0, 0.0, 0.0, 0.0, 0.0, 0.0, 0.0, 0.0, 0.0, 0.0, 0.0, 0.02357741936060416]
---
header: 
  seq: 55
  stamp: 
    secs: 1653294995
    nsecs: 346750000
  frame_id: "map"
pose: 
  pose: 
    position: 
      x: -0.564575176071
      y: 0.783974571019
      z: 0.0
    orientation: 
      x: 0.0
      y: 0.0
      z: 0.947719079047
      w: 0.319105855808
  covariance: [0.025107726137769737, 0.009613001394057907, 0.0, 0.0, 0.0, 0.0, 0.009613001394057907, 0.0540446833025946, 0.0, 0.0, 0.0, 0.0, 0.0, 0.0, 0.0, 0.0, 0.0, 0.0, 0.0, 0.0, 0.0, 0.0, 0.0, 0.0, 0.0, 0.0, 0.0, 0.0, 0.0, 0.0, 0.0, 0.0, 0.0, 0.0, 0.0, 0.01986150756927104]
---
header: 
  seq: 56
  stamp: 
    secs: 1653294995
    nsecs: 625204000
  frame_id: "map"
pose: 
  pose: 
    position: 
      x: -0.637474371269
      y: 0.821090058203
      z: 0.0
    orientation: 
      x: 0.0
      y: 0.0
      z: 0.908782903496
      w: 0.417269258768
  covariance: [0.023531565128121934, 0.009546019850395493, 0.0, 0.0, 0.0, 0.0, 0.009546019850395493, 0.0483995140608483, 0.0, 0.0, 0.0, 0.0, 0.0, 0.0, 0.0, 0.0, 0.0, 0.0, 0.0, 0.0, 0.0, 0.0, 0.0, 0.0, 0.0, 0.0, 0.0, 0.0, 0.0, 0.0, 0.0, 0.0, 0.0, 0.0, 0.0, 0.015880193766606744]
---
header: 
  seq: 57
  stamp: 
    secs: 1653294997
    nsecs:  47371000
  frame_id: "map"
pose: 
  pose: 
    position: 
      x: -0.761481542228
      y: 1.26810758986
      z: 0.0
    orientation: 
      x: 0.0
      y: 0.0
      z: 0.642480793674
      w: 0.766301787653
  covariance: [0.03028997886281881, 0.011647813684655506, 0.0, 0.0, 0.0, 0.0, 0.011647813684655617, 0.06386798607203414, 0.0, 0.0, 0.0, 0.0, 0.0, 0.0, 0.0, 0.0, 0.0, 0.0, 0.0, 0.0, 0.0, 0.0, 0.0, 0.0, 0.0, 0.0, 0.0, 0.0, 0.0, 0.0, 0.0, 0.0, 0.0, 0.0, 0.0, 0.026979734927695724]
---
header: 
  seq: 58
  stamp: 
    secs: 1653295002
    nsecs: 408526000
  frame_id: "map"
pose: 
  pose: 
    position: 
      x: -0.79357428024
      y: 0.976723135348
      z: 0.0
    orientation: 
      x: 0.0
      y: 0.0
      z: 0.642090792008
      w: 0.766628602922
  covariance: [0.025116281674776753, 0.005403726583358859, 0.0, 0.0, 0.0, 0.0, 0.00540372658335897, 0.058561794357232744, 0.0, 0.0, 0.0, 0.0, 0.0, 0.0, 0.0, 0.0, 0.0, 0.0, 0.0, 0.0, 0.0, 0.0, 0.0, 0.0, 0.0, 0.0, 0.0, 0.0, 0.0, 0.0, 0.0, 0.0, 0.0, 0.0, 0.0, 0.023354210408758975]
---
header: 
  seq: 59
  stamp: 
    secs: 1653295004
    nsecs: 994054000
  frame_id: "map"
pose: 
  pose: 
    position: 
      x: -0.876884354646
      y: 0.629797380487
      z: 0.0
    orientation: 
      x: 0.0
      y: 0.0
      z: 0.638870556747
      w: 0.769314247705
  covariance: [0.024128071426145592, -0.000964554058437761, 0.0, 0.0, 0.0, 0.0, -0.000964554058437761, 0.053619726991676775, 0.0, 0.0, 0.0, 0.0, 0.0, 0.0, 0.0, 0.0, 0.0, 0.0, 0.0, 0.0, 0.0, 0.0, 0.0, 0.0, 0.0, 0.0, 0.0, 0.0, 0.0, 0.0, 0.0, 0.0, 0.0, 0.0, 0.0, 0.020116192266553968]
---
header: 
  seq: 60
  stamp: 
    secs: 1653295006
    nsecs: 721947000
  frame_id: "map"
pose: 
  pose: 
    position: 
      x: -0.918806522822
      y: 0.299435969839
      z: 0.0
    orientation: 
      x: 0.0
      y: 0.0
      z: 0.642033651811
      w: 0.766676457146
  covariance: [0.027378648668215377, -0.006103828587002813, 0.0, 0.0, 0.0, 0.0, -0.006103828587002869, 0.04855203333992063, 0.0, 0.0, 0.0, 0.0, 0.0, 0.0, 0.0, 0.0, 0.0, 0.0, 0.0, 0.0, 0.0, 0.0, 0.0, 0.0, 0.0, 0.0, 0.0, 0.0, 0.0, 0.0, 0.0, 0.0, 0.0, 0.0, 0.0, 0.016035042554262323]
---
header: 
  seq: 61
  stamp: 
    secs: 1653295008
    nsecs: 863452000
  frame_id: "map"
pose: 
  pose: 
    position: 
      x: -0.997208299301
      y: -0.127370264358
      z: 0.0
    orientation: 
      x: 0.0
      y: 0.0
      z: 0.641471921629
      w: 0.767146513882
  covariance: [0.032209428442934285, -0.007205462105133925, 0.0, 0.0, 0.0, 0.0, -0.007205462105133925, 0.04345169709944835, 0.0, 0.0, 0.0, 0.0, 0.0, 0.0, 0.0, 0.0, 0.0, 0.0, 0.0, 0.0, 0.0, 0.0, 0.0, 0.0, 0.0, 0.0, 0.0, 0.0, 0.0, 0.0, 0.0, 0.0, 0.0, 0.0, 0.0, 0.014686981175633159]
---
header: 
  seq: 62
  stamp: 
    secs: 1653295012
    nsecs: 133106000
  frame_id: "map"
pose: 
  pose: 
    position: 
      x: -1.04126049901
      y: -0.422859456368
      z: 0.0
    orientation: 
      x: 0.0
      y: 0.0
      z: 0.645057566302
      w: 0.764133977884
  covariance: [0.035319903746177106, -0.006856642031851212, 0.0, 0.0, 0.0, 0.0, -0.006856642031851212, 0.040601967275024076, 0.0, 0.0, 0.0, 0.0, 0.0, 0.0, 0.0, 0.0, 0.0, 0.0, 0.0, 0.0, 0.0, 0.0, 0.0, 0.0, 0.0, 0.0, 0.0, 0.0, 0.0, 0.0, 0.0, 0.0, 0.0, 0.0, 0.0, 0.011587895988292329]
---
header: 
  seq: 63
  stamp: 
    secs: 1653295014
    nsecs: 828061000
  frame_id: "map"
pose: 
  pose: 
    position: 
      x: -0.975096686199
      y: -0.071260783811
      z: 0.0
    orientation: 
      x: 0.0
      y: 0.0
      z: 0.641416092723
      w: 0.767193193398
  covariance: [0.024390141421209544, -0.003672570799934889, 0.0, 0.0, 0.0, 0.0, -0.003672570799934889, 0.03747402996327977, 0.0, 0.0, 0.0, 0.0, 0.0, 0.0, 0.0, 0.0, 0.0, 0.0, 0.0, 0.0, 0.0, 0.0, 0.0, 0.0, 0.0, 0.0, 0.0, 0.0, 0.0, 0.0, 0.0, 0.0, 0.0, 0.0, 0.0, 0.011417352688789585]
---
header: 
  seq: 64
  stamp: 
    secs: 1653295016
    nsecs: 545840000
  frame_id: "map"
pose: 
  pose: 
    position: 
      x: -0.924716168301
      y: 0.207059836515
      z: 0.0
    orientation: 
      x: 0.0
      y: 0.0
      z: 0.64085698094
      w: 0.767660295952
  covariance: [0.020134271619974387, -0.003264640386756973, 0.0, 0.0, 0.0, 0.0, -0.003264640386756973, 0.03304125688631272, 0.0, 0.0, 0.0, 0.0, 0.0, 0.0, 0.0, 0.0, 0.0, 0.0, 0.0, 0.0, 0.0, 0.0, 0.0, 0.0, 0.0, 0.0, 0.0, 0.0, 0.0, 0.0, 0.0, 0.0, 0.0, 0.0, 0.0, 0.01001079858043302]
---
header: 
  seq: 65
  stamp: 
    secs: 1653295017
    nsecs: 959459000
  frame_id: "map"
pose: 
  pose: 
    position: 
      x: -0.87711662741
      y: 0.470340422085
      z: 0.0
    orientation: 
      x: 0.0
      y: 0.0
      z: 0.638521922157
      w: 0.769603634948
  covariance: [0.016530524486500386, -0.0006958951252662438, 0.0, 0.0, 0.0, 0.0, -0.0006958951252662438, 0.02897050566438522, 0.0, 0.0, 0.0, 0.0, 0.0, 0.0, 0.0, 0.0, 0.0, 0.0, 0.0, 0.0, 0.0, 0.0, 0.0, 0.0, 0.0, 0.0, 0.0, 0.0, 0.0, 0.0, 0.0, 0.0, 0.0, 0.0, 0.0, 0.008462430046956373]
---
header: 
  seq: 66
  stamp: 
    secs: 1653295019
    nsecs: 667376000
  frame_id: "map"
pose: 
  pose: 
    position: 
      x: -0.829980851177
      y: 0.791399522596
      z: 0.0
    orientation: 
      x: 0.0
      y: 0.0
      z: 0.642315464684
      w: 0.766440371997
  covariance: [0.014168616250210264, -0.0013550312485788307, 0.0, 0.0, 0.0, 0.0, -0.0013550312485789417, 0.028653249760173582, 0.0, 0.0, 0.0, 0.0, 0.0, 0.0, 0.0, 0.0, 0.0, 0.0, 0.0, 0.0, 0.0, 0.0, 0.0, 0.0, 0.0, 0.0, 0.0, 0.0, 0.0, 0.0, 0.0, 0.0, 0.0, 0.0, 0.0, 0.007967969260713309]
---
header: 
  seq: 67
  stamp: 
    secs: 1653295020
    nsecs: 934271000
  frame_id: "map"
pose: 
  pose: 
    position: 
      x: -0.788412653476
      y: 1.08088047906
      z: 0.0
    orientation: 
      x: 0.0
      y: 0.0
      z: 0.6427543912
      w: 0.766072315511
  covariance: [0.013898748825826868, -0.0013047374546111268, 0.0, 0.0, 0.0, 0.0, -0.0013047374546111268, 0.02526476498716157, 0.0, 0.0, 0.0, 0.0, 0.0, 0.0, 0.0, 0.0, 0.0, 0.0, 0.0, 0.0, 0.0, 0.0, 0.0, 0.0, 0.0, 0.0, 0.0, 0.0, 0.0, 0.0, 0.0, 0.0, 0.0, 0.0, 0.0, 0.007576963936034991]
---
header: 
  seq: 68
  stamp: 
    secs: 1653295022
    nsecs: 654244000
  frame_id: "map"
pose: 
  pose: 
    position: 
      x: -0.705712917491
      y: 1.54811020872
      z: 0.0
    orientation: 
      x: 0.0
      y: 0.0
      z: 0.556270274078
      w: 0.831001433318
  covariance: [0.019180746069778154, -0.001935495101888618, 0.0, 0.0, 0.0, 0.0, -0.001935495101888618, 0.027180202493868322, 0.0, 0.0, 0.0, 0.0, 0.0, 0.0, 0.0, 0.0, 0.0, 0.0, 0.0, 0.0, 0.0, 0.0, 0.0, 0.0, 0.0, 0.0, 0.0, 0.0, 0.0, 0.0, 0.0, 0.0, 0.0, 0.0, 0.0, 0.013856102430469622]
---
header: 
  seq: 69
  stamp: 
    secs: 1653295024
    nsecs: 143865000
  frame_id: "map"
pose: 
  pose: 
    position: 
      x: -0.594647788179
      y: 1.86614078767
      z: 0.0
    orientation: 
      x: 0.0
      y: 0.0
      z: 0.601791403588
      w: 0.798653308118
  covariance: [0.02533686458190193, -0.0034077658946123357, 0.0, 0.0, 0.0, 0.0, -0.0034077658946123357, 0.024597678681887558, 0.0, 0.0, 0.0, 0.0, 0.0, 0.0, 0.0, 0.0, 0.0, 0.0, 0.0, 0.0, 0.0, 0.0, 0.0, 0.0, 0.0, 0.0, 0.0, 0.0, 0.0, 0.0, 0.0, 0.0, 0.0, 0.0, 0.0, 0.012096013733752778]
---
header: 
  seq: 70
  stamp: 
    secs: 1653295025
    nsecs: 646838000
  frame_id: "map"
pose: 
  pose: 
    position: 
      x: -0.523494458113
      y: 2.1875886433
      z: 0.0
    orientation: 
      x: 0.0
      y: 0.0
      z: 0.646489023834
      w: 0.762923287141
  covariance: [0.03039985987839583, -0.004864038389864156, 0.0, 0.0, 0.0, 0.0, -0.004864038389864156, 0.02172604700751446, 0.0, 0.0, 0.0, 0.0, 0.0, 0.0, 0.0, 0.0, 0.0, 0.0, 0.0, 0.0, 0.0, 0.0, 0.0, 0.0, 0.0, 0.0, 0.0, 0.0, 0.0, 0.0, 0.0, 0.0, 0.0, 0.0, 0.0, 0.010331143703034354]
---
header: 
  seq: 71
  stamp: 
    secs: 1653295027
    nsecs: 783953000
  frame_id: "map"
pose: 
  pose: 
    position: 
      x: -0.432973585657
      y: 2.68557754802
      z: 0.0
    orientation: 
      x: 0.0
      y: 0.0
      z: 0.64843676165
      w: 0.761268524333
  covariance: [0.040424357857738596, -0.006795926729513235, 0.0, 0.0, 0.0, 0.0, -0.006795926729513457, 0.024177379828430823, 0.0, 0.0, 0.0, 0.0, 0.0, 0.0, 0.0, 0.0, 0.0, 0.0, 0.0, 0.0, 0.0, 0.0, 0.0, 0.0, 0.0, 0.0, 0.0, 0.0, 0.0, 0.0, 0.0, 0.0, 0.0, 0.0, 0.0, 0.014185356960287636]
---
header: 
  seq: 72
  stamp: 
    secs: 1653295029
    nsecs: 472859000
  frame_id: "map"
pose: 
  pose: 
    position: 
      x: -0.39753664902
      y: 3.05361245836
      z: 0.0
    orientation: 
      x: 0.0
      y: 0.0
      z: 0.647936355333
      w: 0.761694479065
  covariance: [0.043935343865690396, -0.006436585452493482, 0.0, 0.0, 0.0, 0.0, -0.006436585452493482, 0.022122088373437876, 0.0, 0.0, 0.0, 0.0, 0.0, 0.0, 0.0, 0.0, 0.0, 0.0, 0.0, 0.0, 0.0, 0.0, 0.0, 0.0, 0.0, 0.0, 0.0, 0.0, 0.0, 0.0, 0.0, 0.0, 0.0, 0.0, 0.0, 0.013185670960654807]
---
header: 
  seq: 73
  stamp: 
    secs: 1653295032
    nsecs:  44540000
  frame_id: "map"
pose: 
  pose: 
    position: 
      x: -0.312777172676
      y: 3.55226991563
      z: 0.0
    orientation: 
      x: 0.0
      y: 0.0
      z: 0.639996614761
      w: 0.768377728135
  covariance: [0.05736560593725358, -0.005070641061555525, 0.0, 0.0, 0.0, 0.0, -0.005070641061555525, 0.025206845982221893, 0.0, 0.0, 0.0, 0.0, 0.0, 0.0, 0.0, 0.0, 0.0, 0.0, 0.0, 0.0, 0.0, 0.0, 0.0, 0.0, 0.0, 0.0, 0.0, 0.0, 0.0, 0.0, 0.0, 0.0, 0.0, 0.0, 0.0, 0.017158893078628563]
---
header: 
  seq: 74
  stamp: 
    secs: 1653295033
    nsecs: 528366000
  frame_id: "map"
pose: 
  pose: 
    position: 
      x: -0.230160862001
      y: 3.97603210332
      z: 0.0
    orientation: 
      x: 0.0
      y: 0.0
      z: 0.638212112052
      w: 0.769860571812
  covariance: [0.06201867213089204, -0.006238295222572465, 0.0, 0.0, 0.0, 0.0, -0.006238295222572465, 0.025894786742528098, 0.0, 0.0, 0.0, 0.0, 0.0, 0.0, 0.0, 0.0, 0.0, 0.0, 0.0, 0.0, 0.0, 0.0, 0.0, 0.0, 0.0, 0.0, 0.0, 0.0, 0.0, 0.0, 0.0, 0.0, 0.0, 0.0, 0.0, 0.014128811202799992]
---
header: 
  seq: 75
  stamp: 
    secs: 1653295035
    nsecs: 679514000
  frame_id: "map"
pose: 
  pose: 
    position: 
      x: -0.124572120732
      y: 4.51985751188
      z: 0.0
    orientation: 
      x: 0.0
      y: 0.0
      z: 0.635420505034
      w: 0.772166291534
  covariance: [0.07499023262430836, -0.011790729109161902, 0.0, 0.0, 0.0, 0.0, -0.011790729109161902, 0.03073542171131649, 0.0, 0.0, 0.0, 0.0, 0.0, 0.0, 0.0, 0.0, 0.0, 0.0, 0.0, 0.0, 0.0, 0.0, 0.0, 0.0, 0.0, 0.0, 0.0, 0.0, 0.0, 0.0, 0.0, 0.0, 0.0, 0.0, 0.0, 0.01894124210784803]
---
header: 
  seq: 76
  stamp: 
    secs: 1653295036
    nsecs: 994253000
  frame_id: "map"
pose: 
  pose: 
    position: 
      x: -0.0840913996571
      y: 4.88727249486
      z: 0.0
    orientation: 
      x: 0.0
      y: 0.0
      z: 0.643227473683
      w: 0.765675138097
  covariance: [0.0661675035586732, -0.008677482009114668, 0.0, 0.0, 0.0, 0.0, -0.008677482009114668, 0.027451005186616584, 0.0, 0.0, 0.0, 0.0, 0.0, 0.0, 0.0, 0.0, 0.0, 0.0, 0.0, 0.0, 0.0, 0.0, 0.0, 0.0, 0.0, 0.0, 0.0, 0.0, 0.0, 0.0, 0.0, 0.0, 0.0, 0.0, 0.0, 0.014008071370254546]
---
header: 
  seq: 77
  stamp: 
    secs: 1653295043
    nsecs: 702040000
  frame_id: "map"
pose: 
  pose: 
    position: 
      x: -0.0711346969575
      y: 5.04727798467
      z: 0.0
    orientation: 
      x: 0.0
      y: 0.0
      z: 0.547687452705
      w: 0.836683006968
  covariance: [0.05907159736820411, -0.004642083328159408, 0.0, 0.0, 0.0, 0.0, -0.004642083328159408, 0.0251088776301458, 0.0, 0.0, 0.0, 0.0, 0.0, 0.0, 0.0, 0.0, 0.0, 0.0, 0.0, 0.0, 0.0, 0.0, 0.0, 0.0, 0.0, 0.0, 0.0, 0.0, 0.0, 0.0, 0.0, 0.0, 0.0, 0.0, 0.0, 0.011640510477298848]
---
header: 
  seq: 78
  stamp: 
    secs: 1653295044
    nsecs: 728343000
  frame_id: "map"
pose: 
  pose: 
    position: 
      x: -0.0672203842923
      y: 5.05481539861
      z: 0.0
    orientation: 
      x: 0.0
      y: 0.0
      z: 0.394462709215
      w: 0.918911949557
  covariance: [0.04997293806586328, -0.004567207874247803, 0.0, 0.0, 0.0, 0.0, -0.004567207874247803, 0.023004913328989574, 0.0, 0.0, 0.0, 0.0, 0.0, 0.0, 0.0, 0.0, 0.0, 0.0, 0.0, 0.0, 0.0, 0.0, 0.0, 0.0, 0.0, 0.0, 0.0, 0.0, 0.0, 0.0, 0.0, 0.0, 0.0, 0.0, 0.0, 0.009848418330864406]
---
header: 
  seq: 79
  stamp: 
    secs: 1653295045
    nsecs: 734757000
  frame_id: "map"
pose: 
  pose: 
    position: 
      x: -0.0497019263695
      y: 5.06662562557
      z: 0.0
    orientation: 
      x: 0.0
      y: 0.0
      z: 0.243479268236
      w: 0.969906101609
  covariance: [0.04204096456621951, -0.002081965720655582, 0.0, 0.0, 0.0, 0.0, -0.0020819657206556097, 0.019477996572891954, 0.0, 0.0, 0.0, 0.0, 0.0, 0.0, 0.0, 0.0, 0.0, 0.0, 0.0, 0.0, 0.0, 0.0, 0.0, 0.0, 0.0, 0.0, 0.0, 0.0, 0.0, 0.0, 0.0, 0.0, 0.0, 0.0, 0.0, 0.00700333111782739]
---
header: 
  seq: 80
  stamp: 
    secs: 1653295046
    nsecs: 435848000
  frame_id: "map"
pose: 
  pose: 
    position: 
      x: -0.0476967506841
      y: 5.06583379813
      z: 0.0
    orientation: 
      x: 0.0
      y: 0.0
      z: 0.106568873441
      w: 0.994305322933
  covariance: [0.037753118039874696, -0.0009741372929090719, 0.0, 0.0, 0.0, 0.0, -0.0009741372929090164, 0.018290675832311365, 0.0, 0.0, 0.0, 0.0, 0.0, 0.0, 0.0, 0.0, 0.0, 0.0, 0.0, 0.0, 0.0, 0.0, 0.0, 0.0, 0.0, 0.0, 0.0, 0.0, 0.0, 0.0, 0.0, 0.0, 0.0, 0.0, 0.0, 0.006317489188303255]
---
header: 
  seq: 81
  stamp: 
    secs: 1653295051
    nsecs: 330136000
  frame_id: "map"
pose: 
  pose: 
    position: 
      x: 0.221737989427
      y: 5.10374031232
      z: 0.0
    orientation: 
      x: 0.0
      y: 0.0
      z: 0.110091886676
      w: 0.993921413638
  covariance: [0.033553016022225504, -0.0014251685427359995, 0.0, 0.0, 0.0, 0.0, -0.0014251685427359995, 0.015894943031870667, 0.0, 0.0, 0.0, 0.0, 0.0, 0.0, 0.0, 0.0, 0.0, 0.0, 0.0, 0.0, 0.0, 0.0, 0.0, 0.0, 0.0, 0.0, 0.0, 0.0, 0.0, 0.0, 0.0, 0.0, 0.0, 0.0, 0.0, 0.005674410887655449]
---
header: 
  seq: 82
  stamp: 
    secs: 1653295052
    nsecs: 737346000
  frame_id: "map"
pose: 
  pose: 
    position: 
      x: 0.47092142678
      y: 5.13411291835
      z: 0.0
    orientation: 
      x: 0.0
      y: 0.0
      z: 0.112735287281
      w: 0.993625057555
  covariance: [0.03093960279066582, -0.0008664788285788205, 0.0, 0.0, 0.0, 0.0, -0.0008664788285792646, 0.014385377157122292, 0.0, 0.0, 0.0, 0.0, 0.0, 0.0, 0.0, 0.0, 0.0, 0.0, 0.0, 0.0, 0.0, 0.0, 0.0, 0.0, 0.0, 0.0, 0.0, 0.0, 0.0, 0.0, 0.0, 0.0, 0.0, 0.0, 0.0, 0.005420513504497736]
---
header: 
  seq: 83
  stamp: 
    secs: 1653295054
    nsecs: 221346000
  frame_id: "map"
pose: 
  pose: 
    position: 
      x: 0.544410999584
      y: 5.15784405802
      z: 0.0
    orientation: 
      x: 0.0
      y: 0.0
      z: 0.00101775520001
      w: 0.999999482087
  covariance: [0.03315365820917471, -0.000470945285990787, 0.0, 0.0, 0.0, 0.0, -0.000470945285990787, 0.01392720483105947, 0.0, 0.0, 0.0, 0.0, 0.0, 0.0, 0.0, 0.0, 0.0, 0.0, 0.0, 0.0, 0.0, 0.0, 0.0, 0.0, 0.0, 0.0, 0.0, 0.0, 0.0, 0.0, 0.0, 0.0, 0.0, 0.0, 0.0, 0.005102769061476937]
---
header: 
  seq: 84
  stamp: 
    secs: 1653295056
    nsecs: 837434000
  frame_id: "map"
pose: 
  pose: 
    position: 
      x: 0.968683650327
      y: 5.15712429572
      z: 0.0
    orientation: 
      x: 0.0
      y: 0.0
      z: 0.00446458561219
      w: 0.999990033688
  covariance: [0.03130283130865741, -0.001963887944804732, 0.0, 0.0, 0.0, 0.0, -0.001963887944804732, 0.012589821363590659, 0.0, 0.0, 0.0, 0.0, 0.0, 0.0, 0.0, 0.0, 0.0, 0.0, 0.0, 0.0, 0.0, 0.0, 0.0, 0.0, 0.0, 0.0, 0.0, 0.0, 0.0, 0.0, 0.0, 0.0, 0.0, 0.0, 0.0, 0.007640794494225551]
---
header: 
  seq: 85
  stamp: 
    secs: 1653295058
    nsecs: 108685000
  frame_id: "map"
pose: 
  pose: 
    position: 
      x: 1.22184965069
      y: 5.14537651191
      z: 0.0
    orientation: 
      x: 0.0
      y: 0.0
      z: 0.00516999794271
      w: 0.999986635471
  covariance: [0.026286331407865182, -0.0017387311142558204, 0.0, 0.0, 0.0, 0.0, -0.0017387311142558204, 0.012140394511160224, 0.0, 0.0, 0.0, 0.0, 0.0, 0.0, 0.0, 0.0, 0.0, 0.0, 0.0, 0.0, 0.0, 0.0, 0.0, 0.0, 0.0, 0.0, 0.0, 0.0, 0.0, 0.0, 0.0, 0.0, 0.0, 0.0, 0.0, 0.005880308564469406]
---
header: 
  seq: 86
  stamp: 
    secs: 1653295059
    nsecs: 523514000
  frame_id: "map"
pose: 
  pose: 
    position: 
      x: 1.61477682369
      y: 5.16987693681
      z: 0.0
    orientation: 
      x: 0.0
      y: 0.0
      z: 0.006276051321
      w: 0.999980305396
  covariance: [0.022539802765917827, -0.0006412925517818024, 0.0, 0.0, 0.0, 0.0, -0.0006412925517818024, 0.012301181914860848, 0.0, 0.0, 0.0, 0.0, 0.0, 0.0, 0.0, 0.0, 0.0, 0.0, 0.0, 0.0, 0.0, 0.0, 0.0, 0.0, 0.0, 0.0, 0.0, 0.0, 0.0, 0.0, 0.0, 0.0, 0.0, 0.0, 0.0, 0.0061641399262731215]
---
header: 
  seq: 87
  stamp: 
    secs: 1653295060
    nsecs: 661384000
  frame_id: "map"
pose: 
  pose: 
    position: 
      x: 1.93366848841
      y: 5.1688684248
      z: 0.0
    orientation: 
      x: 0.0
      y: 0.0
      z: -0.000134682309043
      w: 0.99999999093
  covariance: [0.02090824588804674, -0.0008392145360716086, 0.0, 0.0, 0.0, 0.0, -0.0008392145360716086, 0.01470785613004466, 0.0, 0.0, 0.0, 0.0, 0.0, 0.0, 0.0, 0.0, 0.0, 0.0, 0.0, 0.0, 0.0, 0.0, 0.0, 0.0, 0.0, 0.0, 0.0, 0.0, 0.0, 0.0, 0.0, 0.0, 0.0, 0.0, 0.0, 0.006194139265990652]
---
header: 
  seq: 88
  stamp: 
    secs: 1653295061
    nsecs: 805731000
  frame_id: "map"
pose: 
  pose: 
    position: 
      x: 2.27491593679
      y: 5.18973342527
      z: 0.0
    orientation: 
      x: 0.0
      y: 0.0
      z: -0.00112905604638
      w: 0.999999362616
  covariance: [0.018655455884544203, -0.0013154621867013105, 0.0, 0.0, 0.0, 0.0, -0.0013154621866977578, 0.017271483277166766, 0.0, 0.0, 0.0, 0.0, 0.0, 0.0, 0.0, 0.0, 0.0, 0.0, 0.0, 0.0, 0.0, 0.0, 0.0, 0.0, 0.0, 0.0, 0.0, 0.0, 0.0, 0.0, 0.0, 0.0, 0.0, 0.0, 0.0, 0.006375525504416521]
---
header: 
  seq: 89
  stamp: 
    secs: 1653295062
    nsecs: 999457000
  frame_id: "map"
pose: 
  pose: 
    position: 
      x: 2.64253264851
      y: 5.17706505529
      z: 0.0
    orientation: 
      x: 0.0
      y: 0.0
      z: -0.0664998595394
      w: 0.997786434404
  covariance: [0.01607296213369569, -0.0004128591349950028, 0.0, 0.0, 0.0, 0.0, -0.0004128591349950028, 0.019240599850036233, 0.0, 0.0, 0.0, 0.0, 0.0, 0.0, 0.0, 0.0, 0.0, 0.0, 0.0, 0.0, 0.0, 0.0, 0.0, 0.0, 0.0, 0.0, 0.0, 0.0, 0.0, 0.0, 0.0, 0.0, 0.0, 0.0, 0.0, 0.006849659872278915]
---
header: 
  seq: 90
  stamp: 
    secs: 1653295064
    nsecs: 347707000
  frame_id: "map"
pose: 
  pose: 
    position: 
      x: 3.05497012
      y: 5.11950109841
      z: 0.0
    orientation: 
      x: 0.0
      y: 0.0
      z: -0.0688154859289
      w: 0.997629404587
  covariance: [0.014168198338346372, -0.0008945091907577307, 0.0, 0.0, 0.0, 0.0, -0.0008945091907577307, 0.024902954376383235, 0.0, 0.0, 0.0, 0.0, 0.0, 0.0, 0.0, 0.0, 0.0, 0.0, 0.0, 0.0, 0.0, 0.0, 0.0, 0.0, 0.0, 0.0, 0.0, 0.0, 0.0, 0.0, 0.0, 0.0, 0.0, 0.0, 0.0, 0.008721818124294917]
---
header: 
  seq: 91
  stamp: 
    secs: 1653295066
    nsecs:  33937000
  frame_id: "map"
pose: 
  pose: 
    position: 
      x: 3.56315404162
      y: 5.04490148627
      z: 0.0
    orientation: 
      x: 0.0
      y: 0.0
      z: -0.0679154487059
      w: 0.997691080359
  covariance: [0.015581947319688538, -0.00018989092642840433, 0.0, 0.0, 0.0, 0.0, -0.00018989092642840433, 0.03612629452347704, 0.0, 0.0, 0.0, 0.0, 0.0, 0.0, 0.0, 0.0, 0.0, 0.0, 0.0, 0.0, 0.0, 0.0, 0.0, 0.0, 0.0, 0.0, 0.0, 0.0, 0.0, 0.0, 0.0, 0.0, 0.0, 0.0, 0.0, 0.01220604154814645]
---
header: 
  seq: 92
  stamp: 
    secs: 1653295067
    nsecs: 444095000
  frame_id: "map"
pose: 
  pose: 
    position: 
      x: 3.99117013626
      y: 5.00045790605
      z: 0.0
    orientation: 
      x: 0.0
      y: 0.0
      z: -0.0708690501259
      w: 0.997485627833
  covariance: [0.015075861011865754, -0.00023623663750171886, 0.0, 0.0, 0.0, 0.0, -0.00023623663750171886, 0.04585815914691338, 0.0, 0.0, 0.0, 0.0, 0.0, 0.0, 0.0, 0.0, 0.0, 0.0, 0.0, 0.0, 0.0, 0.0, 0.0, 0.0, 0.0, 0.0, 0.0, 0.0, 0.0, 0.0, 0.0, 0.0, 0.0, 0.0, 0.0, 0.013737202146731717]
---
header: 
  seq: 93
  stamp: 
    secs: 1653295068
    nsecs: 779715000
  frame_id: "map"
pose: 
  pose: 
    position: 
      x: 4.37967980014
      y: 4.95533628757
      z: 0.0
    orientation: 
      x: 0.0
      y: 0.0
      z: -0.0695496062043
      w: 0.997578494293
  covariance: [0.014692835766833667, 0.001711844419389763, 0.0, 0.0, 0.0, 0.0, 0.001711844419389763, 0.056910674858183796, 0.0, 0.0, 0.0, 0.0, 0.0, 0.0, 0.0, 0.0, 0.0, 0.0, 0.0, 0.0, 0.0, 0.0, 0.0, 0.0, 0.0, 0.0, 0.0, 0.0, 0.0, 0.0, 0.0, 0.0, 0.0, 0.0, 0.0, 0.014117414944909704]
---
header: 
  seq: 94
  stamp: 
    secs: 1653295069
    nsecs: 770309000
  frame_id: "map"
pose: 
  pose: 
    position: 
      x: 4.6917022245
      y: 4.93273343526
      z: 0.0
    orientation: 
      x: 0.0
      y: 0.0
      z: -0.0679740521878
      w: 0.997687089337
  covariance: [0.014580483248501253, 0.0028040696501498985, 0.0, 0.0, 0.0, 0.0, 0.0028040696501498985, 0.06341381507231603, 0.0, 0.0, 0.0, 0.0, 0.0, 0.0, 0.0, 0.0, 0.0, 0.0, 0.0, 0.0, 0.0, 0.0, 0.0, 0.0, 0.0, 0.0, 0.0, 0.0, 0.0, 0.0, 0.0, 0.0, 0.0, 0.0, 0.0, 0.012356672950563906]
---
header: 
  seq: 95
  stamp: 
    secs: 1653295073
    nsecs: 870990000
  frame_id: "map"
pose: 
  pose: 
    position: 
      x: 4.84566831653
      y: 4.92170958851
      z: 0.0
    orientation: 
      x: 0.0
      y: 0.0
      z: 0.0645916565249
      w: 0.997911778619
  covariance: [0.013552825125380252, 0.0020208069149774133, 0.0, 0.0, 0.0, 0.0, 0.0020208069149774133, 0.060169771198719246, 0.0, 0.0, 0.0, 0.0, 0.0, 0.0, 0.0, 0.0, 0.0, 0.0, 0.0, 0.0, 0.0, 0.0, 0.0, 0.0, 0.0, 0.0, 0.0, 0.0, 0.0, 0.0, 0.0, 0.0, 0.0, 0.0, 0.0, 0.01001832465069139]
---
header: 
  seq: 96
  stamp: 
    secs: 1653295074
    nsecs: 673459000
  frame_id: "map"
pose: 
  pose: 
    position: 
      x: 4.83302262199
      y: 4.92596597389
      z: 0.0
    orientation: 
      x: 0.0
      y: 0.0
      z: 0.198252772006
      w: 0.980150926333
  covariance: [0.013158351137306568, 6.782179482200945e-05, 0.0, 0.0, 0.0, 0.0, 6.782179482200945e-05, 0.06005930923253899, 0.0, 0.0, 0.0, 0.0, 0.0, 0.0, 0.0, 0.0, 0.0, 0.0, 0.0, 0.0, 0.0, 0.0, 0.0, 0.0, 0.0, 0.0, 0.0, 0.0, 0.0, 0.0, 0.0, 0.0, 0.0, 0.0, 0.0, 0.010947533742235303]
---
header: 
  seq: 97
  stamp: 
    secs: 1653295075
    nsecs: 807782000
  frame_id: "map"
pose: 
  pose: 
    position: 
      x: 4.83784434257
      y: 4.92850224027
      z: 0.0
    orientation: 
      x: 0.0
      y: 0.0
      z: 0.392622380904
      w: 0.919699769497
  covariance: [0.012870674433248297, -0.00013953280329559448, 0.0, 0.0, 0.0, 0.0, -0.00013953280328848905, 0.05605115717422038, 0.0, 0.0, 0.0, 0.0, 0.0, 0.0, 0.0, 0.0, 0.0, 0.0, 0.0, 0.0, 0.0, 0.0, 0.0, 0.0, 0.0, 0.0, 0.0, 0.0, 0.0, 0.0, 0.0, 0.0, 0.0, 0.0, 0.0, 0.01202944688331395]
---
header: 
  seq: 98
  stamp: 
    secs: 1653295076
    nsecs: 421563000
  frame_id: "map"
pose: 
  pose: 
    position: 
      x: 4.84310641488
      y: 4.93446717095
      z: 0.0
    orientation: 
      x: 0.0
      y: 0.0
      z: 0.504854641371
      w: 0.86320437388
  covariance: [0.01114659408074914, -0.0004395000120851478, 0.0, 0.0, 0.0, 0.0, -0.0004395000120887005, 0.037218399024151694, 0.0, 0.0, 0.0, 0.0, 0.0, 0.0, 0.0, 0.0, 0.0, 0.0, 0.0, 0.0, 0.0, 0.0, 0.0, 0.0, 0.0, 0.0, 0.0, 0.0, 0.0, 0.0, 0.0, 0.0, 0.0, 0.0, 0.0, 0.009430477657040505]
---
header: 
  seq: 99
  stamp: 
    secs: 1653295076
    nsecs: 991869000
  frame_id: "map"
pose: 
  pose: 
    position: 
      x: 4.85787765158
      y: 4.94768127754
      z: 0.0
    orientation: 
      x: 0.0
      y: 0.0
      z: 0.615083577965
      w: 0.788461915452
  covariance: [0.009800199585715319, -0.0019420360992761232, 0.0, 0.0, 0.0, 0.0, -0.0019420360992761232, 0.02816295162470439, 0.0, 0.0, 0.0, 0.0, 0.0, 0.0, 0.0, 0.0, 0.0, 0.0, 0.0, 0.0, 0.0, 0.0, 0.0, 0.0, 0.0, 0.0, 0.0, 0.0, 0.0, 0.0, 0.0, 0.0, 0.0, 0.0, 0.0, 0.008007653387497008]
---
header: 
  seq: 100
  stamp: 
    secs: 1653295078
    nsecs: 706766000
  frame_id: "map"
pose: 
  pose: 
    position: 
      x: 4.87132034701
      y: 4.96207919001
      z: 0.0
    orientation: 
      x: 0.0
      y: 0.0
      z: 0.862921549944
      w: 0.505337905408
  covariance: [0.009316270462086607, 0.0012004635310098877, 0.0, 0.0, 0.0, 0.0, 0.0012004635310098877, 0.03516188156938327, 0.0, 0.0, 0.0, 0.0, 0.0, 0.0, 0.0, 0.0, 0.0, 0.0, 0.0, 0.0, 0.0, 0.0, 0.0, 0.0, 0.0, 0.0, 0.0, 0.0, 0.0, 0.0, 0.0, 0.0, 0.0, 0.0, 0.0, 0.025822809553865626]
---
header: 
  seq: 101
  stamp: 
    secs: 1653295079
    nsecs: 417705000
  frame_id: "map"
pose: 
  pose: 
    position: 
      x: 4.86353862493
      y: 4.97840431014
      z: 0.0
    orientation: 
      x: 0.0
      y: 0.0
      z: 0.935876873573
      w: 0.352327230725
  covariance: [0.008943750666013273, 0.00026939470687636913, 0.0, 0.0, 0.0, 0.0, 0.00026939470687636913, 0.031681491728992484, 0.0, 0.0, 0.0, 0.0, 0.0, 0.0, 0.0, 0.0, 0.0, 0.0, 0.0, 0.0, 0.0, 0.0, 0.0, 0.0, 0.0, 0.0, 0.0, 0.0, 0.0, 0.0, 0.0, 0.0, 0.0, 0.0, 0.0, 0.023125290904129594]
---
header: 
  seq: 102
  stamp: 
    secs: 1653295079
    nsecs: 910397000
  frame_id: "map"
pose: 
  pose: 
    position: 
      x: 4.86304201246
      y: 4.98483611395
      z: 0.0
    orientation: 
      x: 0.0
      y: 0.0
      z: 0.97370511699
      w: 0.227812082971
  covariance: [0.00827788791968942, 0.001108003450386974, 0.0, 0.0, 0.0, 0.0, 0.001108003450386974, 0.026094980151523117, 0.0, 0.0, 0.0, 0.0, 0.0, 0.0, 0.0, 0.0, 0.0, 0.0, 0.0, 0.0, 0.0, 0.0, 0.0, 0.0, 0.0, 0.0, 0.0, 0.0, 0.0, 0.0, 0.0, 0.0, 0.0, 0.0, 0.0, 0.021712179924079904]
---
header: 
  seq: 103
  stamp: 
    secs: 1653295081
    nsecs: 201935000
  frame_id: "map"
pose: 
  pose: 
    position: 
      x: 4.85991592592
      y: 4.99756431625
      z: 0.0
    orientation: 
      x: 0.0
      y: 0.0
      z: 0.998673597323
      w: 0.0514883094416
  covariance: [0.00841696005659287, 0.00032989950172890303, 0.0, 0.0, 0.0, 0.0, 0.00032989950172890303, 0.02299711693108364, 0.0, 0.0, 0.0, 0.0, 0.0, 0.0, 0.0, 0.0, 0.0, 0.0, 0.0, 0.0, 0.0, 0.0, 0.0, 0.0, 0.0, 0.0, 0.0, 0.0, 0.0, 0.0, 0.0, 0.0, 0.0, 0.0, 0.0, 0.024042333373500882]
---
header: 
  seq: 104
  stamp: 
    secs: 1653295084
    nsecs: 432555000
  frame_id: "map"
pose: 
  pose: 
    position: 
      x: 4.19656903038
      y: 5.08043303232
      z: 0.0
    orientation: 
      x: 0.0
      y: 0.0
      z: 0.998613786463
      w: 0.0526355914431
  covariance: [0.01584916381082735, -0.0001471386378995021, 0.0, 0.0, 0.0, 0.0, -0.0001471386378995021, 0.025857430725888975, 0.0, 0.0, 0.0, 0.0, 0.0, 0.0, 0.0, 0.0, 0.0, 0.0, 0.0, 0.0, 0.0, 0.0, 0.0, 0.0, 0.0, 0.0, 0.0, 0.0, 0.0, 0.0, 0.0, 0.0, 0.0, 0.0, 0.0, 0.035792333648947496]
---
header: 
  seq: 105
  stamp: 
    secs: 1653295086
    nsecs:  51463000
  frame_id: "map"
pose: 
  pose: 
    position: 
      x: 3.82915559458
      y: 5.128775033
      z: 0.0
    orientation: 
      x: 0.0
      y: 0.0
      z: 0.998954674129
      w: 0.0457116947382
  covariance: [0.014676984147065752, 0.0021194580142811503, 0.0, 0.0, 0.0, 0.0, 0.0021194580142811503, 0.03201248800463219, 0.0, 0.0, 0.0, 0.0, 0.0, 0.0, 0.0, 0.0, 0.0, 0.0, 0.0, 0.0, 0.0, 0.0, 0.0, 0.0, 0.0, 0.0, 0.0, 0.0, 0.0, 0.0, 0.0, 0.0, 0.0, 0.0, 0.0, 0.028326992246041734]
---
header: 
  seq: 106
  stamp: 
    secs: 1653295088
    nsecs: 510356000
  frame_id: "map"
pose: 
  pose: 
    position: 
      x: 3.29541734638
      y: 5.12918356433
      z: 0.0
    orientation: 
      x: 0.0
      y: 0.0
      z: -0.999521047914
      w: 0.0309463208916
  covariance: [0.016870478454112714, 0.0039862524823810475, 0.0, 0.0, 0.0, 0.0, 0.0039862524823810475, 0.04795218797233147, 0.0, 0.0, 0.0, 0.0, 0.0, 0.0, 0.0, 0.0, 0.0, 0.0, 0.0, 0.0, 0.0, 0.0, 0.0, 0.0, 0.0, 0.0, 0.0, 0.0, 0.0, 0.0, 0.0, 0.0, 0.0, 0.0, 0.0, 0.028067170132262495]
---
header: 
  seq: 107
  stamp: 
    secs: 1653295089
    nsecs: 802891000
  frame_id: "map"
pose: 
  pose: 
    position: 
      x: 2.98324004272
      y: 5.0999136988
      z: 0.0
    orientation: 
      x: 0.0
      y: 0.0
      z: -0.999181859372
      w: 0.0404426989906
